latitude,longitude,views,days_since_taken,id,server,secret,title,tags,date_taken,url_s,image_path,owner,owner_name,media
51.533581,-0.137354,750,5467,54462099226,65535,33447d5683,"Springtime, Oakley Square, Camden, London NW1.",nikond300 nikonnikkor1855mm13556gvrafsdxswmaspherical edk7 2010 uk england london londonnw1 londonboroughofcamden camdentown oakleysquare city cityscape urban house townhouse window stone architecture building oldstructure residential tree vine blossom sign text letter logo colour color purple green sky cloud,2010/5/14 4:15,https://live.staticflickr.com/65535/54462099226_33447d5683_m.jpg,flickr_images_sky\54462099226.jpg,11200205@N02,edk7,photo
51.533688,-0.123085,977,2567,54362708827,65535,9cdd08b668,"King's Cross railway station, 1852, London N1.",olympusomdem5 olympusm1442mmf3556iir edk7 2018 uk england london londonn1 northlondon londonboroughofcamden city cityscape urban kingscross londonkingscrossrailwaystation1852 architecture building oldstructure mechanical engineering sky cloud victorian industrial historic vintage old lattice girder arch gradeilisted window train locomotive machine rail railway railroad rwy rr colour color red transportation sign text letter logo rollingstock,2018/4/22 17:35,https://live.staticflickr.com/65535/54362708827_9cdd08b668_m.jpg,flickr_images_sky\54362708827.jpg,11200205@N02,edk7,photo
51.535322,-0.125471,526,215,54066148027,65535,98cf96d592,Another London Skyline,chrisbarbaraarps findingchris visualstorytelling documentaryandvisualjournalism iphone13pro iphonephotographer iphonephotography iphonelandscape,2024/9/29 16:17,https://live.staticflickr.com/65535/54066148027_98cf96d592_m.jpg,flickr_images_sky\54066148027.jpg,75377955@N02,Finding Chris,photo
51.535591,-0.130569,49,262,53930611388,65535,1bcd86250c,London Shapes,london bluesky circles confusion circlesofconfusion moss blue green park,2024/8/13 13:19,https://live.staticflickr.com/65535/53930611388_1bcd86250c_m.jpg,flickr_images_sky\53930611388.jpg,60229840@N00,Pittypomm,photo
51.537106,-0.128788,1612,823,53726301247,65535,a3bccaeaa0,Forever Looking Up,monochrome blackandwhite hdr highdynamicrange gasholderpark coaldropsyard kingscross london christchurchgreyfriars building structure urban city night evening sky stars lowlight longexposure sonya7riii sony 1635mm sel1635gm,2023/1/30 0:29,https://live.staticflickr.com/65535/53726301247_a3bccaeaa0_m.jpg,flickr_images_sky\53726301247.jpg,82336316@N03,NIGHT X NIGHT Photography,photo
51.536993,-0.128188,1529,823,53717954106,65535,a01b70d542,Not A Drop,hdr highdynamicrange gasholderpark coaldropsyard kingscross london christchurchgreyfriars construction building structure crane river reflections urban city night evening sky stars lowlight longexposure sonya7riii sony 1635mm sel1635gm,2023/1/30 0:21,https://live.staticflickr.com/65535/53717954106_a01b70d542_m.jpg,flickr_images_sky\53717954106.jpg,82336316@N03,NIGHT X NIGHT Photography,photo
51.53475,-0.125387,1504,824,53707221821,65535,82f041bc2a,Dark Frontier,169 widescreen coaldropsyard kingscross london christchurchgreyfriars building architecture river urban city night evening sky lowlight longexposure sonya7riii sony 1635mm sel1635gm,2023/1/29 23:57,https://live.staticflickr.com/65535/53707221821_82f041bc2a_m.jpg,flickr_images_sky\53707221821.jpg,82336316@N03,NIGHT X NIGHT Photography,photo
51.535645,-0.122609,1845,824,53705225989,65535,f2f749e9a3,Only Just Begun,square 1x1 hdr highdynamicrange coaldropsyard kingscross london christchurchgreyfriars construction building structure crane river reflections urban city night evening sky stars lowlight longexposure sonya7riii sony 1635mm sel1635gm,2023/1/29 23:47,https://live.staticflickr.com/65535/53705225989_f2f749e9a3_m.jpg,flickr_images_sky\53705225989.jpg,82336316@N03,NIGHT X NIGHT Photography,photo
51.532788,-0.130531,57,594,53209839664,65535,a929ed5244,Light For Learning,somers town london edith neville school glass sky blue shadow light metal lines,2023/9/16 12:37,https://live.staticflickr.com/65535/53209839664_a929ed5244_m.jpg,flickr_images_sky\53209839664.jpg,183023190@N03,AndInTheEnd,photo
51.536105,-0.12719,1943,678,53056984208,65535,95c76e9ef3,Gas Holders,gasholder flats apartment park canalside flowers yellow shrubs footpath people sky cloud kingscross stpancras camden london nikonz50 nikkorz18140 ghe,2023/6/24 12:41,https://live.staticflickr.com/65535/53056984208_95c76e9ef3_m.jpg,flickr_images_sky\53056984208.jpg,150408877@N06,Croydon Clicker,photo
51.536953,-0.128531,253,709,52928968859,65535,39d457e430,"Regents Canal, London",england london places unitedkingdom regentscanal barges reflections bluesky spring may,2023/5/24 12:40,https://live.staticflickr.com/65535/52928968859_39d457e430_m.jpg,flickr_images_sky\52928968859.jpg,15028105@N03,@bill_11,photo
51.533402,-0.126503,737,767,52779972059,65535,e0bf534792,aim for the sky,london reflection symmetry vapourtrail contrail stpancras camden pancrassquare lookup,2023/3/27 11:24,https://live.staticflickr.com/65535/52779972059_e0bf534792_m.jpg,flickr_images_sky\52779972059.jpg,21000745@N02,d0gwalker,photo
51.536632,-0.128273,1004,5469,52768215752,65535,f019573666,"St Pancras Basin, Regent's Canal, Camden, London N1.",nikond300 edk7 2010 uk england london londonn1 londonboroughofcamden canalrivertrust regentscanal stpancrasbasin narrowboat architecture building oldstructure machine mechanical engineering transportation history historical unlimitedphotos boat ship bridge railway railroad rwy rr train utilitypole water reflection sky cloud grass industrial,2010/5/12 5:56,https://live.staticflickr.com/65535/52768215752_f019573666_m.jpg,flickr_images_sky\52768215752.jpg,11200205@N02,edk7,photo
51.537086,-0.128123,1173,2567,52742635717,65535,8c5d034746,"Angry sky, King's Cross, London N1..",olympusomdem5 edk7 2018 uk england london londonn1 northlondon londonboroughofcamden kingscross stpancras city cityscape urban architecture building oldstructure mechanical engineering sky cloud gasholder victorian guideframe gasometer industrial historic vintage old park,2018/4/22 16:56,https://live.staticflickr.com/65535/52742635717_8c5d034746_m.jpg,flickr_images_sky\52742635717.jpg,11200205@N02,edk7,photo
51.534697,-0.125581,3100,815,52692905249,65535,3c1d10baf7,Red Bridge,canal water towpath bridge people reflection boats wall sky kingscross stpancras camden london nikonz50 viltrox13f14z ghe,2023/2/7 15:44,https://live.staticflickr.com/65535/52692905249_3c1d10baf7_m.jpg,flickr_images_sky\52692905249.jpg,150408877@N06,Croydon Clicker,photo
51.534697,-0.125581,3292,815,52676735835,65535,8e4060f24f,Still Waters,canal water reflection boats narrowboat building warehouse windows sky trees still regentscanal kingscross stpancras camden london nikonz50 viltrox13f14z ghe,2023/2/7 15:44,https://live.staticflickr.com/65535/52676735835_8e4060f24f_m.jpg,flickr_images_sky\52676735835.jpg,150408877@N06,Croydon Clicker,photo
51.535863,-0.126771,467,972,52333793478,65535,b6fb7ccae7,Sunlight,sun ribbons sky lensflare coaldropsyard,2022/9/3 13:05,https://live.staticflickr.com/65535/52333793478_b6fb7ccae7_m.jpg,flickr_images_sky\52333793478.jpg,73088501@N07,Mandy Willard,photo
51.53718,-0.127758,116,983,52316096812,65535,47871b055d,Gasholders,buildings london gas holders modern apartments sky industrial pillars columns grey web,2022/8/23 12:12,https://live.staticflickr.com/65535/52316096812_47871b055d_m.jpg,flickr_images_sky\52316096812.jpg,35382557@N05,SJGPhotography,photo
51.534688,-0.125401,218,1047,52226528579,65535,a6911d9ebc,2022 06 20 - Regent's Canal,regentscanal kingscross london,2022/6/20 10:04,https://live.staticflickr.com/65535/52226528579_a6911d9ebc_m.jpg,flickr_images_sky\52226528579.jpg,77151846@N08,LesHutchinson,photo
51.536963,-0.127334,121,1286,52205634527,65535,2ed7462352,_DSC6001,building sky lfgphotowalk02,2021/10/24 15:01,https://live.staticflickr.com/65535/52205634527_2ed7462352_m.jpg,flickr_images_sky\52205634527.jpg,73422480@N00,tompagenet,photo
51.533936,-0.127673,828,1161,51963816839,65535,f5a3e71870,Arch Abstract,london city urban building architecture wall roof topic abigfave,2022/2/26 11:12,https://live.staticflickr.com/65535/51963816839_f5a3e71870_m.jpg,flickr_images_sky\51963816839.jpg,96654411@N02,steve_whitmarsh,photo
51.535811,-0.127576,738,5469,51824571798,65535,f0b2001f0c,"Along Regent's Canal, King's Cross, London N1.",nikond300 edk7 2010 uk england london kingscross londonboroughofislington londonn1 britishwaterways grandunioncanal regentscanalarm regentscanal boat canalboat ship reflection tree cloud sky gasholder industrial lock city cityscape urban waterway,2010/5/12 5:59,https://live.staticflickr.com/65535/51824571798_f0b2001f0c_m.jpg,flickr_images_sky\51824571798.jpg,11200205@N02,edk7,photo
51.535064,-0.116611,885,5469,51823461792,65535,62fab41083,"Along Regent's Canal, Islington, London N1.",nikond300 edk7 2010 uk england london londonboroughofislington londonn1 britishwaterways grandunioncanal regentscanalarm regentscanal islingtonvisitormoorings boat canalboat ship porthole window reflection architecture building oldstructure brick tree terrace cloud sky tvantenna city cityscape urban waterway,2010/5/12 4:48,https://live.staticflickr.com/65535/51823461792_62fab41083_m.jpg,flickr_images_sky\51823461792.jpg,11200205@N02,edk7,photo
51.53718,-0.123499,1997,1286,51645800328,65535,692282913a,UK - London - Flickr Group Photowalk - Coal Drops Yard triangles_sq mono_DSC0101,uklondonflickrgroupphotowalkcoaldropsyardtrianglessqmonodsc0101 londonflickrphotowalk londonflickrphotowalk02,2021/10/24 17:05,https://live.staticflickr.com/65535/51645800328_692282913a_m.jpg,flickr_images_sky\51645800328.jpg,79986881@N00,Darrell Godliman,photo
51.534813,-0.130481,2713,1286,51633401570,65535,aca8ca2893,St Pancras Old Church,church graveyard tombs spire clock weathervane hedge bush tree sky cloud leaves stpancras somerstown camden london nikond700 tamronsp2470mm ghe lfgphotowalk02,2021/10/24 14:57,https://live.staticflickr.com/65535/51633401570_aca8ca2893_m.jpg,flickr_images_sky\51633401570.jpg,150408877@N06,Croydon Clicker,photo
51.535024,-0.125226,52,1314,51578758134,65535,2812d33009,BATN 121,london uk england sky,2021/9/26 16:40,https://live.staticflickr.com/65535/51578758134_2812d33009_m.jpg,flickr_images_sky\51578758134.jpg,32799292@N00,newnumenor,photo
51.534883,-0.12452,546,1490,51157974936,65535,5a6a010057,"King's Cross development, April 2021",weather building 2021 regentscanal kingscross mirrorless fujifilm fujinon london crane 03042021 sky 1545 granarysquare stpancras xt30 april 1545mm 3april2021 csc fuji xc1545mmf3556oispz england unitedkingdom,2021/4/3 16:50,https://live.staticflickr.com/65535/51157974936_5a6a010057_m.jpg,flickr_images_sky\51157974936.jpg,13601389@N02,nican45,photo
51.534988,-0.124717,334,1489,51100719779,65535,ff8554c20c,Blue Sky Thinking,,2021/4/4 11:28,https://live.staticflickr.com/65535/51100719779_ff8554c20c_m.jpg,flickr_images_sky\51100719779.jpg,27008470@N00,steve_w,photo
51.539752,-0.134484,3204,1917,51073623001,65535,52edaf37dd,Cornwall,narrowboat barge canal stpancras camden london towpath footpath people buidings sky cloud bridge cornwall nikon nikond700 d700 nikkor nikkoraf28105d ghe,2020/2/1 14:03,https://live.staticflickr.com/65535/51073623001_52edaf37dd_m.jpg,flickr_images_sky\51073623001.jpg,150408877@N06,Croydon Clicker,photo
51.535578,-0.123413,469,1560,50867444077,65535,74d74af2a5,,london england station train sky haze winter sunshine sun canal river water fujifilm victorian,2021/1/23 18:17,https://live.staticflickr.com/65535/50867444077_74d74af2a5_m.jpg,flickr_images_sky\50867444077.jpg,61553415@N08,Daniel-Charles,photo
51.538568,-0.1372,52,1620,50708594023,65535,dd0c442f8b,Purple Skies,241120 london londonboroughofcamden camden phone,2020/11/24 16:09,https://live.staticflickr.com/65535/50708594023_dd0c442f8b_m.jpg,flickr_images_sky\50708594023.jpg,11561957@N06,failing_angel,photo
51.538774,-0.137876,47,1638,50632745143,65535,d07d638e11,Tree in the Corner,061120 london phone londonboroughofcamden camden mackerelsky,2020/11/6 10:27,https://live.staticflickr.com/65535/50632745143_d07d638e11_m.jpg,flickr_images_sky\50632745143.jpg,11561957@N06,failing_angel,photo
51.538774,-0.137876,77,1638,50633494661,65535,45e0b8f85b,All Saints Under the Sky,061120 london phone londonboroughofcamden camden mackerelsky greekorthodoxcathedralchurchofallsaints church greekorthodox allsaints williaminwood henryinwood,2020/11/6 10:35,https://live.staticflickr.com/65535/50633494661_45e0b8f85b_m.jpg,flickr_images_sky\50633494661.jpg,11561957@N06,failing_angel,photo
51.538774,-0.137876,48,1638,50632744883,65535,b414d11729,Branches Against the Sky,061120 london phone londonboroughofcamden camden mackerelsky,2020/11/6 10:41,https://live.staticflickr.com/65535/50632744883_b414d11729_m.jpg,flickr_images_sky\50632744883.jpg,11561957@N06,failing_angel,photo
51.534069,-0.113728,483,1650,50557810343,65535,eb9fa117eb,"Silhouettes, Islington",silhouettes autumn london sky pollard composition,2020/10/25 11:04,https://live.staticflickr.com/65535/50557810343_eb9fa117eb_m.jpg,flickr_images_sky\50557810343.jpg,97699932@N00,r0sejam,photo
51.535102,-0.125445,420,1705,50376088577,65535,8c61abcb8c,"King's Cross development, August 2020",england building london architecture canal fuji unitedkingdom crane august regentscanal fujifilm kingscross stpancras fujinon waterway csc 2020 18135 18135mm mirrorless xt2 granarysquare xf18135mmf3556rlmoiswr 31082020 31august2020 sky weather,2020/8/31 18:32,https://live.staticflickr.com/65535/50376088577_8c61abcb8c_m.jpg,flickr_images_sky\50376088577.jpg,13601389@N02,nican45,photo
51.536229,-0.12765,2278,1887,50239313253,65535,c4aee4f334,20200302-0221,alpha emount england europe europeanunion femount kingscross london nex regentscanal regentscanaltowpath samyang samyangaf35mmf28sonyemount samyangtinyprime sony sonya7markii unitedkingdom westerneurope blur canal cloud digital fullframe industrial industry lock motionblur movement reflection sky slowshutterspeed urban water,2020/3/2 15:41,https://live.staticflickr.com/65535/50239313253_c4aee4f334_m.jpg,flickr_images_sky\50239313253.jpg,30139139@N04,www.cjo.info,photo
51.535057,-0.124948,1229,1833,49933232668,65535,3ff18fc7dc,0100_0032,35mm boots boots200colourprint england europe europeanunion granarysquare kingscross london slr unitedkingdom westerneurope yashica yashicasamuraix30 abstract analogue bluesky crane film halfframe incamerahalfframediptych industrial industry sky urban,2020/4/25 12:00,https://live.staticflickr.com/65535/49933232668_3ff18fc7dc_m.jpg,flickr_images_sky\49933232668.jpg,30139139@N04,www.cjo.info,photo
51.535636,-0.125121,2195,1917,49482867027,65535,15d1ebd325,Arches,arches lights shadows people terrace piaza fountains building sky cloud sunlight kingscross london nikon nikond700 nikkor nikkoraf28105mmd ghe,2020/2/1 13:33,https://live.staticflickr.com/65535/49482867027_15d1ebd325_m.jpg,flickr_images_sky\49482867027.jpg,150408877@N06,Croydon Clicker,photo
51.537051,-0.128468,2104,1917,49480534517,65535,97504ccdf3,Fast and Slow,train railway canal narrowboats boats water sky cloud buildings stpancras london camden nikond700 nikkoraf28105mmd ghe,2020/2/1 13:48,https://live.staticflickr.com/65535/49480534517_97504ccdf3_m.jpg,flickr_images_sky\49480534517.jpg,150408877@N06,Croydon Clicker,photo
51.537051,-0.128468,2649,1917,49474704578,65535,d01539e7ef,Mirrors,garden park footpath mirrors shadows sky cloud structure gasometer grass lawn stpancras camden london nikond700 nikkor ghe,2020/2/1 13:52,https://live.staticflickr.com/65535/49474704578_d01539e7ef_m.jpg,flickr_images_sky\49474704578.jpg,150408877@N06,Croydon Clicker,photo
51.536451,-0.126345,3254,2135,49081630956,65535,fa0c9e8abb,Late summer...,50mm canon5dmkiii people london splendid cityoflondon canonphotography londonphotographer ef50mmf18stm phredkh photosbyphredkh fredkh coalsdropyard sky prime gas kingscross peopleonthestreet peopleoflondon primelens canoneos5dmarkiii coaldropsyard flowers architecture bars tank restaurants,2019/6/28 18:04,https://live.staticflickr.com/65535/49081630956_fa0c9e8abb_m.jpg,flickr_images_sky\49081630956.jpg,13634925@N03,PhredKH,photo
51.536451,-0.126345,2751,2135,49081823977,65535,f7699604da,Late summer...,london 50mm canonphotography londonphotographer canon5dmkiii ef50mmf18stm fredkh coalsdropyard people splendid cityoflondon phredkh photosbyphredkh prime peopleonthestreet peopleoflondon primelens canoneos5dmarkiii flowers sky architecture bars tank restaurants gas kingscross coaldropsyard,2019/6/28 18:06,https://live.staticflickr.com/65535/49081823977_f7699604da_m.jpg,flickr_images_sky\49081823977.jpg,13634925@N03,PhredKH,photo
51.5408,-0.137659,1188,2014,48979805551,65535,855a9c5bbc,Camden Architecture,reflection architecture water sky london camden canal england unitedkingdom,2019/10/27 8:20,https://live.staticflickr.com/65535/48979805551_855a9c5bbc_m.jpg,flickr_images_sky\48979805551.jpg,96705257@N08,Sam Codrington,photo
51.535444,-0.125248,1187,2064,48720391908,65535,9149268521,Granary Square 4585,london kingscrossregeneration granarysquare regentscanal camden city glc greaterlondon londonboroughofcamden capital england uk omdem1mkii building architecture olympus copyright fountain outside exterior facade,2019/9/7 18:40,https://live.staticflickr.com/65535/48720391908_9149268521_m.jpg,flickr_images_sky\48720391908.jpg,12494104@N00,stagedoor,photo
51.535444,-0.125248,871,2064,48720727126,65535,e8a73730ce,Granary Square 4590,london kingscrossregeneration granarysquare regentscanal camden city glc greaterlondon londonboroughofcamden capital england uk omdem1mkii building architecture olympus copyright fountain outside exterior facade,2019/9/7 18:46,https://live.staticflickr.com/65535/48720727126_e8a73730ce_m.jpg,flickr_images_sky\48720727126.jpg,12494104@N00,stagedoor,photo
51.534737,-0.125913,948,2130,48194516482,65535,92524c4cf4,FISH AND COAL BUILDING 3,fishandcoalbuilding coaldropsyard granarysquare regentscanal kingscross london england uk city urban sky clouds unlimitedphotos nigelbewley photologo canonef1635mmf28liiusm canon5dmkii 830nm infrared digitalinfrared advancedcameraservices blackandwhite blackwhite creativephotography artphotography amateurphotographer appicoftheweek july july2019,2019/7/3 17:13,https://live.staticflickr.com/65535/48194516482_92524c4cf4_m.jpg,flickr_images_sky\48194516482.jpg,28845654@N08,Nigel Bewley,photo
51.533297,-0.125739,754,2660,48032398258,65535,2bdb5bedef,IFO by Jacques Rival,ornage dot light lumiere london festival art event romantic blue passion secret feeling people england urban city busy still peace quiet artistic viewer pink birdcage luminous rainbow winter beauty sky bird cage kingscross,2018/1/19 18:43,https://live.staticflickr.com/65535/48032398258_2bdb5bedef_m.jpg,flickr_images_sky\48032398258.jpg,14423978@N08,Michiyo Photo,photo
51.536111,-0.126945,187,2182,40876868093,65535,95c5b9c709,"Coal Drops Yard, London",,2019/5/12 16:12,https://live.staticflickr.com/65535/40876868093_95c5b9c709_m.jpg,flickr_images_sky\40876868093.jpg,35155400@N03,Secondcity,photo
51.535833,-0.1275,73,2182,47054044794,65535,d27c8c6ba8,"Regent's Canal, London",,2019/5/12 16:13,https://live.staticflickr.com/65535/47054044794_d27c8c6ba8_m.jpg,flickr_images_sky\47054044794.jpg,35155400@N03,Secondcity,photo
51.534722,-0.124723,136,2182,40876863653,65535,521f4233a5,"Granary Square, London",,2019/5/12 17:07,https://live.staticflickr.com/65535/40876863653_521f4233a5_m.jpg,flickr_images_sky\40876863653.jpg,35155400@N03,Secondcity,photo
51.535833,-0.126667,166,2182,33966206418,65535,ae300fa63f,"Coal Drops Yard, London",,2019/5/12 16:14,https://live.staticflickr.com/65535/33966206418_ae300fa63f_m.jpg,flickr_images_sky\33966206418.jpg,35155400@N03,Secondcity,photo
51.534722,-0.125,103,2182,47054033044,65535,861d5958a0,"Regent's Canal, London",,2019/5/12 17:07,https://live.staticflickr.com/65535/47054033044_861d5958a0_m.jpg,flickr_images_sky\47054033044.jpg,35155400@N03,Secondcity,photo
51.53744,-0.130387,850,2182,40873563843,65535,3831a9b206,Regent's Canal,england london stpancras camden regents canal regentscanal water waterscape dusk sunset reflection boat barge urban city cityscape website,2019/5/12 20:30,https://live.staticflickr.com/65535/40873563843_3831a9b206_m.jpg,flickr_images_sky\40873563843.jpg,81925897@N00,ca2cal,photo
51.536799,-0.129175,1729,2184,47825468851,65535,0c5ebdc088,66009. Dock Junction South.,dockjunctionsouth dbcargo 66009 actontctarmacchurchyardsidings diesel locomotive freight aggregate highrise regentscanal wcml,2019/5/10 11:53,https://live.staticflickr.com/65535/47825468851_0c5ebdc088_m.jpg,flickr_images_sky\47825468851.jpg,66202473@N04,Alan Burkwood,photo
51.536138,-0.126492,2668,2226,32836724407,65535,11757bfb0b,UK - London - Coal Drops Yard 01_DSC5493,uklondoncoaldropsyard01dsc5493 thomasheatherwick heatherwick design london england britain greatbritain unitedkingdom,2019/3/29 13:51,https://live.staticflickr.com/65535/32836724407_11757bfb0b_m.jpg,flickr_images_sky\32836724407.jpg,79986881@N00,Darrell Godliman,photo
51.536846,-0.12616,2883,2226,46864202075,65535,ca9233e8ec,UK - London - Coal Drops Yard Offices 01_sq_DSC5496,uklondoncoaldropsyardapartments01sqdsc5496 sq squares bsquares squareformat windows dwwg coaldropsyard kingscross london architecture contemporaryarchitecture modern building facade mossessianarchitects uklondoncoaldropsyardoffices01sqdsc5496,2019/3/29 13:57,https://live.staticflickr.com/65535/46864202075_ca9233e8ec_m.jpg,flickr_images_sky\46864202075.jpg,79986881@N00,Darrell Godliman,photo
51.536846,-0.12616,1962,2226,47780507371,65535,707e19d8bf,UK - London - Coal Drops Yard Offices 01_DSC5496,uklondoncoaldropsyardapartments01dsc5496 coaldropsyard kingscross london architecture contemporaryarchitecture modern building facade mossessianarchitects office offices uklondoncoaldropsyardoffices01dsc5496,2019/3/29 13:57,https://live.staticflickr.com/65535/47780507371_707e19d8bf_m.jpg,flickr_images_sky\47780507371.jpg,79986881@N00,Darrell Godliman,photo
51.539001,-0.133316,439,2190,33900976118,65535,929e0cb233,"Boxes, Regent's Canal",rquk d750 limehousebasintocamdenlock regentscanal buildings afsnikkor1835mmf3545ged nikond750,2019/5/4 14:47,https://live.staticflickr.com/65535/33900976118_929e0cb233_m.jpg,flickr_images_sky\33900976118.jpg,24619268@N02,rq uk,photo
51.538434,-0.132801,434,2190,33900975528,65535,2228058b79,"Boat or Building?, Regent's Canal",rquk d750 limehousebasintocamdenlock regentscanal buildings afsnikkor1835mmf3545ged nikond750,2019/5/4 14:45,https://live.staticflickr.com/65535/33900975528_2228058b79_m.jpg,flickr_images_sky\33900975528.jpg,24619268@N02,rq uk,photo
51.53746,-0.130494,398,2190,33900975158,65535,a90fe90c57,"Peaceful, Regent's Canal",rquk d750 limehousebasintocamdenlock regentscanal buildings afsnikkor1835mmf3545ged nikond750,2019/5/4 14:18,https://live.staticflickr.com/65535/33900975158_a90fe90c57_m.jpg,flickr_images_sky\33900975158.jpg,24619268@N02,rq uk,photo
51.536999,-0.128767,455,2190,32834357907,65535,c1da8bb736,"Battlebridge Basin, Regent's Canal",rquk d750 limehousebasintocamdenlock regentscanal buildings afsnikkor1835mmf3545ged battlebridgebasin nikond750,2019/5/4 13:41,https://live.staticflickr.com/65535/32834357907_c1da8bb736_m.jpg,flickr_images_sky\32834357907.jpg,24619268@N02,rq uk,photo
51.536312,-0.127887,443,2190,32834356957,65535,cf3231a2dd,"Interesting Mix ,Regent's Canal",rquk d750 limehousebasintocamdenlock regentscanal afsnikkor1835mmf3545ged moored boats buildings nikond750,2019/5/4 13:34,https://live.staticflickr.com/65535/32834356957_cf3231a2dd_m.jpg,flickr_images_sky\32834356957.jpg,24619268@N02,rq uk,photo
51.535184,-0.120484,413,2190,32834356367,65535,56229e660d,"Boat Club, Regent's Canal",rquk d750 limehousebasintocamdenlock regentscanal afsnikkor1835mmf3545ged canoe boatclub nikond750,2019/5/4 13:01,https://live.staticflickr.com/65535/32834356367_56229e660d_m.jpg,flickr_images_sky\32834356367.jpg,24619268@N02,rq uk,photo
51.535137,-0.119433,397,2190,47777921341,65535,52c4dbd884,"Bridge Academy, Regent's Canal",rquk d750 limehousebasintocamdenlock regentscanal afsnikkor1835mmf3545ged bridgeacademy nikond750,2019/5/4 13:00,https://live.staticflickr.com/65535/47777921341_52c4dbd884_m.jpg,flickr_images_sky\47777921341.jpg,24619268@N02,rq uk,photo
51.537146,-0.128542,643,2190,40811173123,65535,fb46a5bbfc,Gasholder Park,rquk d750 limehousebasintocamdenlock gasometer regentscanal afsnikkor1835mmf3545ged gasholderpark flats nikond750 52weeksthe2019edition,2019/5/4 14:29,https://live.staticflickr.com/65535/40811173123_fb46a5bbfc_m.jpg,flickr_images_sky\40811173123.jpg,24619268@N02,rq uk,photo
51.5349,-0.122914,21,2203,47609711652,65535,f9a18ac3af,IMG_20190421_111341.jpg,,2019/4/21 11:13,https://live.staticflickr.com/65535/47609711652_f9a18ac3af_m.jpg,flickr_images_sky\47609711652.jpg,27199415@N05,baddogdown,photo
51.5349,-0.122914,22,2203,47662669641,65535,837d951666,IMG_20190421_111353.jpg,,2019/4/21 11:13,https://live.staticflickr.com/65535/47662669641_837d951666_m.jpg,flickr_images_sky\47662669641.jpg,27199415@N05,baddogdown,photo
51.5349,-0.122914,22,2203,40696113583,65535,385c89e5af,IMG_20190421_111345.jpg,,2019/4/21 11:13,https://live.staticflickr.com/65535/40696113583_385c89e5af_m.jpg,flickr_images_sky\40696113583.jpg,27199415@N05,baddogdown,photo
51.533849,-0.125752,1564,5469,46893899234,65535,13fa9fd483,"Pancras Gasworks Gasholder No.8 - Imperial Gas, Light & Coke Co., 1883 - King's Cross, London WC1..",nikond300 edk7 2010 uk england london londonboroughofcamden stpancras kingscross pancrasgasworksgasholderno8 gasometer towngas coalgas imperialgaslightandcokeco built1850s expanded1883 decommissioned2000 gradeiilisted city cityscape urban engineering architecture building oldstructure ruin relic abandoned derelict industrial vintage heritage iron steel lattice column capital sunset cloud sky,2010/5/12 14:24,https://live.staticflickr.com/65535/46893899234_13fa9fd483_m.jpg,flickr_images_sky\46893899234.jpg,11200205@N02,edk7,photo
51.539588,-0.123012,528,2211,32655673947,7855,5e8b9e1b26,66705 at Ferme Park,,2019/4/13 11:05,https://live.staticflickr.com/7855/32655673947_5e8b9e1b26_m.jpg,flickr_images_sky\32655673947.jpg,51036032@N08,Wanderer 30,photo
51.533633,-0.123448,571,2211,33720952838,7920,37869ff813,LNER 91111 on 1N83 1106 London Kings Cross to York at Kings Cross on Saturday 13 April 2019,,2019/4/13 10:43,https://live.staticflickr.com/7920/33720952838_37869ff813_m.jpg,flickr_images_sky\33720952838.jpg,51036032@N08,Wanderer 30,photo
51.536732,-0.127834,130,2225,47504691252,7869,099b82f008,LOND1 181,london england uk,2019/3/30 16:11,https://live.staticflickr.com/7869/47504691252_099b82f008_m.jpg,flickr_images_sky\47504691252.jpg,32799292@N00,newnumenor,photo
51.537086,-0.128252,168,2225,47504690132,7892,9590df173f,LOND1 175,london england uk,2019/3/30 16:06,https://live.staticflickr.com/7892/47504690132_9590df173f_m.jpg,flickr_images_sky\47504690132.jpg,32799292@N00,newnumenor,photo
51.533049,-0.125452,111,2225,47504686672,7835,327d42ccaa,LOND1 161,london england uk,2019/3/30 15:46,https://live.staticflickr.com/7835/47504686672_327d42ccaa_m.jpg,flickr_images_sky\47504686672.jpg,32799292@N00,newnumenor,photo
51.5337,-0.123167,207,2218,32614113167,7841,5dd4203881,91114,trains railway class91 ecml kgx lner 91114,2019/4/6 16:45,https://live.staticflickr.com/7841/32614113167_5dd4203881_m.jpg,flickr_images_sky\32614113167.jpg,105285627@N06,Lucas31 Transport Photography,photo
51.5375,-0.125278,57,2587,46831154384,7843,4d63712f6d,"London, April 2018",london april 2018 londonapril2018 kingscross greaterlondon england unitedkingdom geo:neighbourhood=kingscross geo:locality=london geo:county=greaterlondon geo:region=england geo:country=unitedkingdom camera:make=samsung camera:model=smg950f exif:orientation=horizontalnormal exif:exposure=11492 exif:aperture=17 exif:isospeed=40 exif:exposurebias=0 exif:flash=noflash exif:focallength=42mm meta:exif=1554632187 hvk hugovk samsung smg950f samsungsmg950f cameraphone s8 samsungs8 galaxys8 samsunggalaxys8 spring kev?t,2018/4/2 11:18,https://live.staticflickr.com/7843/46831154384_4d63712f6d_m.jpg,flickr_images_sky\46831154384.jpg,44124404848@N01,hugovk,photo
51.536388,-0.127778,63,2587,47502049592,7862,20db8c7c0f,"London, April 2018",london april 2018 londonapril2018 kingscross greaterlondon england unitedkingdom geo:neighbourhood=kingscross geo:locality=london geo:county=greaterlondon geo:region=england geo:country=unitedkingdom camera:make=samsung camera:model=smg950f exif:orientation=rotate90cw exif:exposure=11572 exif:aperture=17 exif:isospeed=40 exif:exposurebias=0 exif:flash=noflash exif:focallength=42mm meta:exif=1554632171 hvk hugovk samsung smg950f samsungsmg950f cameraphone s8 samsungs8 galaxys8 samsunggalaxys8 spring kev?t,2018/4/2 11:40,https://live.staticflickr.com/7862/47502049592_20db8c7c0f_m.jpg,flickr_images_sky\47502049592.jpg,44124404848@N01,hugovk,photo
51.536388,-0.127778,61,2587,33678193558,7885,613d214241,"London, April 2018",london april 2018 londonapril2018 kingscross greaterlondon england unitedkingdom geo:neighbourhood=kingscross geo:locality=london geo:county=greaterlondon geo:region=england geo:country=unitedkingdom camera:make=samsung camera:model=smg950f exif:orientation=rotate90cw exif:exposure=11612 exif:aperture=17 exif:isospeed=40 exif:exposurebias=0 exif:flash=noflash exif:focallength=42mm meta:exif=1554632166 hvk hugovk samsung smg950f samsungsmg950f cameraphone s8 samsungs8 galaxys8 samsunggalaxys8 spring kev?t,2018/4/2 11:40,https://live.staticflickr.com/7885/33678193558_613d214241_m.jpg,flickr_images_sky\33678193558.jpg,44124404848@N01,hugovk,photo
51.536666,-0.127778,63,2587,47502049542,7813,406bacba0d,"London, April 2018",london april 2018 londonapril2018 kingscross greaterlondon england unitedkingdom geo:neighbourhood=kingscross geo:locality=london geo:county=greaterlondon geo:region=england geo:country=unitedkingdom camera:make=samsung camera:model=smg950f exif:orientation=horizontalnormal exif:exposure=12012 exif:aperture=17 exif:isospeed=40 exif:exposurebias=0 exif:flash=noflash exif:focallength=42mm meta:exif=1554632162 hvk hugovk samsung smg950f samsungsmg950f cameraphone s8 samsungs8 galaxys8 samsunggalaxys8 spring kev?t,2018/4/2 11:40,https://live.staticflickr.com/7813/47502049542_406bacba0d_m.jpg,flickr_images_sky\47502049542.jpg,44124404848@N01,hugovk,photo
51.5375,-0.130278,57,2587,33678193158,7894,98f66a9fe3,"London, April 2018",london april 2018 londonapril2018 kingscross greaterlondon england unitedkingdom geo:neighbourhood=kingscross geo:locality=london geo:county=greaterlondon geo:region=england geo:country=unitedkingdom camera:make=samsung camera:model=smg950f exif:orientation=horizontalnormal exif:exposure=12056 exif:aperture=17 exif:isospeed=40 exif:exposurebias=0 exif:flash=noflash exif:focallength=42mm meta:exif=1554632141 hvk hugovk samsung smg950f samsungsmg950f cameraphone s8 samsungs8 galaxys8 samsunggalaxys8 spring kev?t,2018/4/2 11:44,https://live.staticflickr.com/7894/33678193158_98f66a9fe3_m.jpg,flickr_images_sky\33678193158.jpg,44124404848@N01,hugovk,photo
51.533847,-0.123252,2223,19115,46806866434,7849,2689418ae5,9001 (55001) St Paddy at Kings Cross circa 1973 by Peter Brabham,,1973/1/1 0:00,https://live.staticflickr.com/7849/46806866434_2689418ae5_m.jpg,flickr_images_sky\46806866434.jpg,23444821@N06,peter.brabham,photo
51.5337,-0.123167,243,2225,40551606803,7878,8768a89aa5,91121,trains railway,2019/3/30 17:03,https://live.staticflickr.com/7878/40551606803_8768a89aa5_m.jpg,flickr_images_sky\40551606803.jpg,105285627@N06,Lucas31 Transport Photography,photo
51.532828,-0.126836,62,2439,47442961022,7877,4b5aab72df,St Pancras international,stpancrasinternational southeastern,2018/8/28 18:05,https://live.staticflickr.com/7877/47442961022_4b5aab72df_m.jpg,flickr_images_sky\47442961022.jpg,106910975@N06,Oz_97,photo
51.532828,-0.126836,127,2439,33619066828,7905,e2140a6e94,St Pancras International,stpancrasinternational eurostar,2018/8/28 18:04,https://live.staticflickr.com/7905/33619066828_e2140a6e94_m.jpg,flickr_images_sky\33619066828.jpg,106910975@N06,Oz_97,photo
51.532828,-0.126836,116,2439,33619054008,7896,99c88e6f16,St Pancras International,395006 stpancrasinternational southeastern,2018/8/28 17:55,https://live.staticflickr.com/7896/33619054008_99c88e6f16_m.jpg,flickr_images_sky\33619054008.jpg,106910975@N06,Oz_97,photo
51.532828,-0.126836,66,2439,32553666207,7922,c7ae41ed0a,St Pancras International,stpancrasinternational,2018/8/28 17:42,https://live.staticflickr.com/7922/32553666207_c7ae41ed0a_m.jpg,flickr_images_sky\32553666207.jpg,106910975@N06,Oz_97,photo
51.532828,-0.126836,60,2439,32553663817,7855,b1c6879bca,St Pancras International,stpancrasinternational,2018/8/28 17:42,https://live.staticflickr.com/7855/32553663817_b1c6879bca_m.jpg,flickr_images_sky\32553663817.jpg,106910975@N06,Oz_97,photo
51.534319,-0.125876,796,2230,46743633224,7819,55e8730023,Canal-side evening and Spring blossom,canal boats waterways inland regent blossom spring evening sunset,2019/3/25 17:42,https://live.staticflickr.com/7819/46743633224_55e8730023_m.jpg,flickr_images_sky\46743633224.jpg,79478905@N04,35mmMan,photo
51.536224,-0.126395,890,2242,47364981602,7845,8ba63e9cfd,"High tech, low tech - King's Cross",kingscross london abstract glass reflection street streetphotography urban,2019/3/13 14:22,https://live.staticflickr.com/7845/47364981602_8ba63e9cfd_m.jpg,flickr_images_sky\47364981602.jpg,12547546@N00,Paul Perton,photo
51.535544,-0.126584,336,2261,33495174598,7912,f2d744debf,_MG_5060,coaldropsyard,2019/2/22 12:28,https://live.staticflickr.com/7912/33495174598_f2d744debf_m.jpg,flickr_images_sky\33495174598.jpg,73422480@N00,tompagenet,photo
51.537055,-0.128334,10,2249,32385533257,7889,402412bee6,,,2019/3/6 16:06,https://live.staticflickr.com/7889/32385533257_402412bee6_m.jpg,flickr_images_sky\32385533257.jpg,42438338@N00,GeoBlogs,photo
51.536769,-0.126748,11,2249,46604427414,7863,97b840126d,,,2019/3/6 16:08,https://live.staticflickr.com/7863/46604427414_97b840126d_m.jpg,flickr_images_sky\46604427414.jpg,42438338@N00,GeoBlogs,photo
51.535212,-0.132672,213,2250,33417605428,7897,1005a66705,"Goldington Street tower block, 1949 by Thomas Sibthorp for St Pancras Municipal Council",london architechture outdoor city uk pancras st art deco,2019/3/5 22:32,https://live.staticflickr.com/7897/33417605428_1005a66705_m.jpg,flickr_images_sky\33417605428.jpg,58415659@N00,kitmasterbloke,photo
51.534951,-0.124765,307,2260,46526598624,7832,8fc155dd07,"Regents Canal At Kings Cross St Pancras, Central London",,2019/2/23 13:40,https://live.staticflickr.com/7832/46526598624_8fc155dd07_m.jpg,flickr_images_sky\46526598624.jpg,138818155@N04,jamjar1998,photo
51.535124,-0.117523,12992,2262,46507216644,7828,148f9af6ed,Regent canal Camden Town,reflet reflexion canal london londres blue orange boat peniche england ciel sky sunny,2019/2/21 17:44,https://live.staticflickr.com/7828/46507216644_148f9af6ed_m.jpg,flickr_images_sky\46507216644.jpg,78624751@N02,serge der,photo
51.533463,-0.122675,283,2277,46311660855,7848,995af99c5a,"90029,036 & 019 London Kings Cross 06.02.19",ecml london class90 db 90019 90036 90029,2019/2/6 11:51,https://live.staticflickr.com/7848/46311660855_995af99c5a_m.jpg,flickr_images_sky\46311660855.jpg,91200944@N08,Kev90019,photo
51.533144,-0.128309,67,2258,47207731181,7898,8aa5ecd220,Red signal for cycles at junction Pancras road,,2019/2/25 12:06,https://live.staticflickr.com/7898/47207731181_8aa5ecd220_m.jpg,flickr_images_sky\47207731181.jpg,99923531@N00,Camden Cyclists,photo
51.533891,-0.129067,89,2258,46293240695,7819,51789464a2,Junction Pancras Road - Midland Road Stage 1: Cycles and motors go ahead while left-turning motors wait,,2019/2/25 12:08,https://live.staticflickr.com/7819/46293240695_51789464a2_m.jpg,flickr_images_sky\46293240695.jpg,99923531@N00,Camden Cyclists,photo
51.536098,-0.128295,204,2260,46273482715,7912,f3a978be74,View from Camley street,ec1jack kierankelly canoneos600d camleystreet kingscross london england britain uk europe gastower,2019/2/23 16:02,https://live.staticflickr.com/7912/46273482715_f3a978be74_m.jpg,flickr_images_sky\46273482715.jpg,26373083@N03,ec1jack,photo
51.535177,-0.123027,132,2261,46462347944,7926,184338d3b8,Grand Union Canal near King's Place,grandunioncanal kingsplace london uk unitedkingdom england イングランド 英格兰 greatbritain grandebretagne grossbritannien 大不列u グレ`トブリテンu 英 イギリス ロンドン 伦敦,2019/2/22 13:07,https://live.staticflickr.com/7926/46462347944_184338d3b8_m.jpg,,14958189@N06,John Steedman,photo
51.535277,-0.125278,162,2263,32224026247,7878,a7c420cbbd,20190220_182452,london coal drops yard,2019/2/20 18:24,https://live.staticflickr.com/7878/32224026247_a7c420cbbd_m.jpg,,48119803@N03,stamford0001,photo
51.535555,-0.126112,176,2263,46442493334,7900,d960e8ee4f,20190220_183546,london coal drops yard,2019/2/20 18:35,https://live.staticflickr.com/7900/46442493334_d960e8ee4f_m.jpg,,48119803@N03,stamford0001,photo
51.536727,-0.128642,1835,4418,40199170743,7822,0bd5a5e082,London 28 March 2013-045.jpg,unitedkingdom forthemanwhohaseverything england london wwwjamespdeanscouk gb greatbritain britain printsforsale jamespdeansphotography landscapeforwalls europe uk digitaldownloadsforlicence,2013/3/28 10:35,https://live.staticflickr.com/7822/40199170743_0bd5a5e082_m.jpg,,104000687@N08,JamesPDeans.co.uk,photo
51.534677,-0.125292,11,2878,32179907957,7854,1fba3308dd,King's Cross Coal Office,britain british camden camley coaloffice england english grannarysquare greatbritain kingscross lner london londonnortheasternrailway londonandnortheasternrailway n1c northlondon regentscanal uk unitedkingdom architecture building canal city nature park railway railwayarchitecture regeneration sunset towpath transport transportation tree trees urbanrenewal warehouse waterway gb,2017/6/15 21:30,https://live.staticflickr.com/7854/32179907957_1fba3308dd_m.jpg,,25302607@N00,Joe Dunckley,photo
51.534919,-0.130842,75,2292,40049397053,7819,6b2b3a2ec6,"St Pancras Old Church, Kings Cross, London",church stpancras stpancrasoldchurch kingscross kings cross old london uk,2019/1/22 13:06,https://live.staticflickr.com/7819/40049397053_6b2b3a2ec6_m.jpg,,39886685@N02,PaChambers,photo
51.533322,-0.123531,869,2279,40032842313,4909,fff3b246e6,90029 at Kings Cross,class90 90029 1d24 kingscross electric railway,2019/2/4 17:08,https://live.staticflickr.com/4909/40032842313_fff3b246e6_m.jpg,,63923883@N03,lewispix,photo
51.533638,-0.122881,859,2278,46941861042,4882,a9518da8d8,91108 and 91127 flank an HST at King’s Cross,london kingscross class 91 91108 91127 hst,2019/2/5 12:08,https://live.staticflickr.com/4882/46941861042_a9518da8d8_m.jpg,,55727763@N02,colin9007,photo
51.534557,-0.124261,513,2283,46951841491,4810,f8f50eebb5,Lights and Snow,weather canonpowershotg9x london uk kingscross england,2019/1/31 23:06,https://live.staticflickr.com/4810/46951841491_f8f50eebb5_m.jpg,,22052379@N00,Simply Lewis,photo
51.534997,-0.131112,63,2288,33042666088,7886,68134a7f14,2019-01-26 06.43.34 1,,2019/1/26 14:11,https://live.staticflickr.com/7886/33042666088_68134a7f14_m.jpg,,39416654@N00,laptoppingpong,photo
51.53583,-0.128331,59,2288,33042165708,4870,c9cc1e0608,2019-01-27 09.34.54 1,,2019/1/26 14:30,https://live.staticflickr.com/4870/33042165708_c9cc1e0608_m.jpg,,39416654@N00,laptoppingpong,photo
51.533596,-0.123231,1296,2288,46843242882,4843,641f69600d,43274,lner london north eastern railway rail inter city intercity 125 high speed train class43,2019/1/26 15:06,https://live.staticflickr.com/4843/46843242882_641f69600d_m.jpg,,41274384@N07,stavioni,photo
51.533596,-0.123231,628,2288,46842952392,4913,809874a5bb,91128,lner london north eastern railway class91 electric locomotive rail train,2019/1/26 15:06,https://live.staticflickr.com/4913/46842952392_809874a5bb_m.jpg,,41274384@N07,stavioni,photo
51.534501,-0.123285,6057,19258,46005122614,7897,dc01864c89,Class 31  No. 5643 at Kings Cross August 1972 by John Wiltshire: Peter Brabham collection,,1972/8/10 19:04,https://live.staticflickr.com/7897/46005122614_dc01864c89_m.jpg,,23444821@N06,peter.brabham,photo
51.536713,-0.126248,975,2375,46541171342,7887,634c8df24a,"Granary Square, Kings X",,2018/10/31 15:57,https://live.staticflickr.com/7887/46541171342_634c8df24a_m.jpg,,63935982@N00,agebous,photo
51.532991,-0.126034,21,2313,32681552038,7836,3ed561087d,Fire over London,,2019/1/1 0:09,https://live.staticflickr.com/7836/32681552038_3ed561087d_m.jpg,,155353400@N03,fstanis,photo
51.539355,-0.135676,2533,2978,45771439744,7908,573c5f18c6,London Underground - KS66XZW,camden london underground transport for tfl emergency response unit units eru volvo jdc john dennis coachbuilders rt rescue tender ks66xzw 2610 b882 police,2017/3/7 11:59,https://live.staticflickr.com/7908/45771439744_573c5f18c6_m.jpg,,91434714@N00,matthewleggott,photo
51.539355,-0.135676,2262,2978,45771439144,4818,6fc8f51f9b,London Underground - KS66YAF,camden london underground transport for tfl emergency response unit units eru volvo jdc john dennis coachbuilders rt rescue tender ks66yaf 2605,2017/3/7 11:56,https://live.staticflickr.com/4818/45771439144_6fc8f51f9b_m.jpg,,91434714@N00,matthewleggott,photo
51.535498,-0.122727,171,2332,46370460312,7860,31c2b2f10c,Regent's Canal,london kingscross december 2018 olympus e420 opteka fisheye,2018/12/13 16:52,https://live.staticflickr.com/7860/46370460312_31c2b2f10c_m.jpg,,26565770@N02,The original SimonB,photo
51.535478,-0.125377,262,2332,46420902131,7897,407a6e086f,Coal Drops Yard 1,london kingscross december 2018 olympus e420 opteka fisheye,2018/12/13 16:54,https://live.staticflickr.com/7897/46420902131_407a6e086f_m.jpg,,26565770@N02,The original SimonB,photo
51.536966,-0.12675,324,2332,46370459692,7800,c5246c5959,Coal Drops Yard 2,london kingscross december 2018 olympus e420 opteka fisheye,2018/12/13 16:55,https://live.staticflickr.com/7800/46370459692_c5246c5959_m.jpg,,26565770@N02,The original SimonB,photo
51.536966,-0.12675,367,2332,46420901771,4822,8e53d1912d,Coal Drops Yard 3,london kingscross december 2018 olympus e420 opteka fisheye,2018/12/13 16:56,https://live.staticflickr.com/4822/46420901771_8e53d1912d_m.jpg,,26565770@N02,The original SimonB,photo
51.536966,-0.12675,317,2332,46370458862,4866,92eff83012,Coal Drops Yard 4,london kingscross december 2018 olympus e420 opteka fisheye,2018/12/13 16:57,https://live.staticflickr.com/4866/46370458862_92eff83012_m.jpg,,26565770@N02,The original SimonB,photo
51.535478,-0.125377,564,2332,46370457662,7889,5f60a1c493,Coal Drops Yard 8,london kingscross december 2018 olympus e420 opteka fisheye,2018/12/13 17:06,https://live.staticflickr.com/7889/46370457662_5f60a1c493_m.jpg,,26565770@N02,The original SimonB,photo
51.533004,-0.123338,608,2325,46347675902,4805,729cb1f28e,The Roof on the Floor,kings cross station christmas build up roof floor puddle reflection sky pavement platform,2018/12/20 14:16,https://live.staticflickr.com/4805/46347675902_729cb1f28e_m.jpg,,59466642@N06,gooey_lewy,photo
51.537281,-0.128509,384,2329,45441832545,4888,bbf9067c18,ST PANCRAS1.jpg,skyline sky bw monochrome blackandwhite blackwhite stpancras kingscross architecture london coaldrops yard coaldropsyard square granarysquare heatherwick heatherwickstudio,2018/12/16 11:41,https://live.staticflickr.com/4888/45441832545_bbf9067c18_m.jpg,,10645937@N03,Colin Dorey,photo
51.535686,-0.126729,1053,2368,44283654250,4814,3bc1cf8004,Coal Drops Yard,coaldropsyard kingscross london heatherwick gasholders,2018/11/7 17:28,https://live.staticflickr.com/4814/44283654250_3bc1cf8004_m.jpg,,61013449@N07,carolyngifford,photo
51.535686,-0.126729,969,2368,46099973471,4820,17ea4bed69,Coal Drops Yard,coaldropsyard kingscross london heatherwick gasholders gasometer,2018/11/7 17:23,https://live.staticflickr.com/4820/46099973471_17ea4bed69_m.jpg,,61013449@N07,carolyngifford,photo
51.533643,-0.125699,41,2377,45983071551,4884,2a1f5d457b,4 Pancras Square - 20380,4pancrassquare london kingscross ericparryarchitects,2018/10/29 13:03,https://live.staticflickr.com/4884/45983071551_2a1f5d457b_m.jpg,,47072881@N06,padraic collins,photo
51.534722,-0.122223,466,2358,45070038515,4893,22a2b59b5d,"York Way, KX",london kingscross kx yorkway,2018/11/17 12:37,https://live.staticflickr.com/4893/45070038515_22a2b59b5d_m.jpg,,97699932@N00,r0sejam,photo
51.536405,-0.127147,234,2377,31036872777,4835,5be6c522ef,Coal Drops Yard - 20364,coaldropsyard london kingscross heatherwickstudio architecture,2018/10/29 13:17,https://live.staticflickr.com/4835/31036872777_5be6c522ef_m.jpg,,47072881@N06,padraic collins,photo
51.536405,-0.127147,174,2377,45251318404,4917,6c7f05ea48,Coal Drops Yard - 20367,coaldropsyard london kingscross heatherwickstudio architecture,2018/10/29 13:20,https://live.staticflickr.com/4917/45251318404_6c7f05ea48_m.jpg,,47072881@N06,padraic collins,photo
51.536405,-0.127147,239,2377,45063405875,4910,d9355a595b,Coal Drops Yard - 20371,coaldropsyard london kingscross heatherwickstudio architecture,2018/10/29 13:23,https://live.staticflickr.com/4910/45063405875_d9355a595b_m.jpg,,47072881@N06,padraic collins,photo
51.536405,-0.127147,239,2377,45063319585,4839,1c1219c42c,Coal Drops Yard - 20372,coaldropsyard london kingscross heatherwickstudio architecture,2018/10/29 13:25,https://live.staticflickr.com/4839/45063319585_1c1219c42c_m.jpg,,47072881@N06,padraic collins,photo
51.536405,-0.127147,153,2377,45925970412,4833,36bc2b3590,Coal Drops Yardv3,coaldropsyard london kingscross heatherwickstudio architecture,2018/10/29 13:26,https://live.staticflickr.com/4833/45925970412_36bc2b3590_m.jpg,,47072881@N06,padraic collins,photo
51.536405,-0.127147,101,2377,31036231447,4916,1e345c8e58,Coal Drops Yard - 20374,coaldropsyard london kingscross heatherwickstudio architecture,2018/10/29 13:27,https://live.staticflickr.com/4916/31036231447_1e345c8e58_m.jpg,,47072881@N06,padraic collins,photo
51.536405,-0.127147,104,2377,45063106095,4810,61ec536908,Coal Drops Yard - 20376,coaldropsyard london kingscross heatherwickstudio architecture,2018/10/29 14:34,https://live.staticflickr.com/4810/45063106095_61ec536908_m.jpg,,47072881@N06,padraic collins,photo
51.536405,-0.127147,119,2377,45063057965,4816,6c22c7177d,Coal Drops Yard - 20377,coaldropsyard london kingscross heatherwickstudio architecture,2018/10/29 14:38,https://live.staticflickr.com/4816/45063057965_6c22c7177d_m.jpg,,47072881@N06,padraic collins,photo
51.536405,-0.127147,110,2377,45925723282,4828,08ec2c7710,Coal Drops Yard - 20378,coaldropsyard london kingscross heatherwickstudio architecture,2018/10/29 14:43,https://live.staticflickr.com/4828/45925723282_08ec2c7710_m.jpg,,47072881@N06,padraic collins,photo
51.535288,-0.125184,19,2360,45905271041,4814,7a2009044d,,,2018/11/15 15:53,https://live.staticflickr.com/4814/45905271041_7a2009044d_m.jpg,,42438338@N00,GeoBlogs,photo
51.533626,-0.123338,2156,2377,44074125990,4893,58a1b22eb0,Tuesday 30th October 2018 London Kings X 91127.. 800107.. 91104 & 700103,nikon d70002018london kings x 91127 800107 91104 700103 station train railway,2018/10/30 0:00,https://live.staticflickr.com/4893/44074125990_58a1b22eb0_m.jpg,,42827648@N07,Steve75C,photo
51.534463,-0.125398,725,2386,45165139584,4909,edf6038780,Regents Canal 8372,london kingscrossregeneration granarysquare regentscanal camden city glc greaterlondon londonboroughofcamden capital england uk building architecture olympus omdem1mkii copyright outside exterior facade,2018/10/20 17:45,https://live.staticflickr.com/4909/45165139584_edf6038780_m.jpg,,12494104@N00,stagedoor,photo
51.536512,-0.127694,1167,2386,45165139184,4911,6371026616,Regents Canal 8424,london kingscrossregeneration granarysquare regentscanal camden city glc greaterlondon londonboroughofcamden capital england uk building architecture olympus omdem1mkii copyright outside exterior facade,2018/10/20 18:13,https://live.staticflickr.com/4911/45165139184_6371026616_m.jpg,,12494104@N00,stagedoor,photo
51.535502,-0.126764,610,2378,31986841648,4821,affc73cdb6,The Coal Drops - Kings Cross,coal drop kings cross london england heatherwick,2018/10/28 15:15,https://live.staticflickr.com/4821/31986841648_affc73cdb6_m.jpg,,42907325@N00,OliverN5,photo
51.538536,-0.12482,73,2679,31964340728,4888,cfd9f03608,Kings Cross. #Architecture,,2017/12/31 13:59,https://live.staticflickr.com/4888/31964340728_cfd9f03608_m.jpg,,89918686@N03,turini2,photo
51.533312,-0.125473,16,2398,45736775922,4901,d9df9ef741,London,london stpancrasrailwaystation,2018/10/8 13:38,https://live.staticflickr.com/4901/45736775922_d9df9ef741_m.jpg,,35155400@N03,Secondcity,photo
51.533312,-0.125473,25,2398,45736774542,1971,80e38aae16,London,london android,2018/10/8 13:39,https://live.staticflickr.com/1971/45736774542_80e38aae16_m.jpg,,35155400@N03,Secondcity,photo
51.535061,-0.125602,34,2398,43952112600,4888,727abd2e4e,London,london,2018/10/8 13:27,https://live.staticflickr.com/4888/43952112600_727abd2e4e_m.jpg,,35155400@N03,Secondcity,photo
51.534781,-0.124883,27,2398,43952110870,4868,46062c6cbc,London,london regentscanal granarysquare,2018/10/8 13:29,https://live.staticflickr.com/4868/43952110870_46062c6cbc_m.jpg,,35155400@N03,Secondcity,photo
51.534781,-0.124883,42,2398,43952109950,4881,1613bc03cc,London,london regentscanal granarysquare,2018/10/8 13:29,https://live.staticflickr.com/4881/43952109950_1613bc03cc_m.jpg,,35155400@N03,Secondcity,photo
51.533439,-0.125559,20,2398,43952105920,1931,972e10777d,London,london stpancrasrailwaystation,2018/10/8 13:33,https://live.staticflickr.com/1931/43952105920_972e10777d_m.jpg,,35155400@N03,Secondcity,photo
51.533439,-0.125559,20,2398,43952105110,4819,0b5f15503d,London,london stpancrasrailwaystation,2018/10/8 13:33,https://live.staticflickr.com/4819/43952105110_0b5f15503d_m.jpg,,35155400@N03,Secondcity,photo
51.535568,-0.122426,37,2398,45044066804,1913,073a3c5b5c,"Regent's Canal, London",regentscanal london,2018/10/8 13:18,https://live.staticflickr.com/1913/45044066804_073a3c5b5c_m.jpg,,35155400@N03,Secondcity,photo
51.535568,-0.122426,34,2398,45044064154,1917,31fc157a7b,"Regent's Canal, London",regentscanal london,2018/10/8 13:19,https://live.staticflickr.com/1917/45044064154_31fc157a7b_m.jpg,,35155400@N03,Secondcity,photo
51.535281,-0.125269,47,2398,45718928952,1975,0538f86f98,London,london,2018/10/8 13:26,https://live.staticflickr.com/1975/45718928952_0538f86f98_m.jpg,,35155400@N03,Secondcity,photo
51.535277,-0.126389,184,2372,30775374967,1943,d4c1be1926,"Coal Drops Yard, blurred",coaldropsyard evening gbr geo:lat=5153527778 geo:lon=012638889 geotagged greaterlondon kingscross twilight unitedkingdom,2018/11/3 16:46,https://live.staticflickr.com/1943/30775374967_d4c1be1926_m.jpg,,35183682@N00,Badly Drawn Dad,photo
51.535444,-0.125248,892,2386,45659420772,4892,8151286963,Granary Square 8466,london kingscrossregeneration granarysquare regentscanal camden city glc greaterlondon londonboroughofcamden capital england uk building architecture olympus omdem1mkii copyright outside exterior facade night,2018/10/20 18:36,https://live.staticflickr.com/4892/45659420772_8151286963_m.jpg,,12494104@N00,stagedoor,photo
51.536,-0.126556,466,2379,44771140515,1960,a82aeef2f3,Coal Drops Yard,20181027 coaldropsyard kingscross london development heritage history railway retail shops,2018/10/27 12:25,https://live.staticflickr.com/1960/44771140515_a82aeef2f3_m.jpg,,51939423@N00,McTumshie (Andrew Smith),photo
51.536,-0.126556,294,2379,45634929332,4841,0fc58be051,Converted,20181027 coaldropsyard gasholder gassholderno8 gassholderpark kingscross london development heritage history railway retail shops,2018/10/27 12:30,https://live.staticflickr.com/4841/45634929332_0fc58be051_m.jpg,,51939423@N00,McTumshie (Andrew Smith),photo
51.536,-0.126556,278,2379,44771140165,1968,68c91c06c9,Perched,20181027 coaldropsyard kingscross london bird development heritage history railway reflection retail roof shops sky slates,2018/10/27 12:13,https://live.staticflickr.com/1968/44771140165_68c91c06c9_m.jpg,,51939423@N00,McTumshie (Andrew Smith),photo
51.536,-0.126556,189,2379,45634928232,4909,c4fd2235d8,Rising Up,20181027 coaldropsyard kingscross london development heritage history railway retail shops,2018/10/27 12:10,https://live.staticflickr.com/4909/45634928232_c4fd2235d8_m.jpg,,51939423@N00,McTumshie (Andrew Smith),photo
51.53548,-0.126923,56,2377,45585115562,1968,0d07cb60df,Day 3 - Coal Drops Yard_1,,2018/10/29 11:06,https://live.staticflickr.com/1968/45585115562_0d07cb60df_m.jpg,,45487717@N00,blackpuddinonnabike,photo
51.535991,-0.127248,75,2377,30694699557,1909,2afab9ec34,Day 3 - Coal Drops Yard_2,,2018/10/29 11:09,https://live.staticflickr.com/1909/30694699557_2afab9ec34_m.jpg,,45487717@N00,blackpuddinonnabike,photo
51.535991,-0.127542,50,2377,31763377108,1971,6daacd804f,Day 3 - Coal Drops Yard_3,,2018/10/29 11:12,https://live.staticflickr.com/1971/31763377108_6daacd804f_m.jpg,,45487717@N00,blackpuddinonnabike,photo
51.535891,-0.128384,24,3331,45607098871,1978,b9227a62e7,FGONGFGD-DSCN6329,walking regentscanal,2016/3/19 14:42,https://live.staticflickr.com/1978/45607098871_b9227a62e7_m.jpg,,156090345@N04,walkingmunch,photo
51.535891,-0.128384,23,3331,44693262215,1904,cc3f81b57e,FGONGFHN-DSCN6330,walking regentscanal,2016/3/19 14:43,https://live.staticflickr.com/1904/44693262215_cc3f81b57e_m.jpg,,156090345@N04,walkingmunch,photo
51.535905,-0.12842,13,3331,44693259595,1910,a9439a6ceb,FGONGFMN-DSCN6332,walking regentscanal,2016/3/19 14:44,https://live.staticflickr.com/1910/44693259595_a9439a6ceb_m.jpg,,156090345@N04,walkingmunch,photo
51.535925,-0.128337,16,3331,45607093941,1938,d840f82cdc,FGONGGBI-DSCN6333,walking regentscanal,2016/3/19 14:45,https://live.staticflickr.com/1938/45607093941_d840f82cdc_m.jpg,,156090345@N04,walkingmunch,photo
51.535905,-0.128295,17,3331,43789455490,1923,32c0530ab3,FGONGGCA-DSCN6334,walking regentscanal,2016/3/19 14:45,https://live.staticflickr.com/1923/43789455490_32c0530ab3_m.jpg,,156090345@N04,walkingmunch,photo
51.535905,-0.128295,20,3331,30666197567,1910,7db53f5810,FGONGGCE-DSCN6335,walking regentscanal,2016/3/19 14:45,https://live.staticflickr.com/1910/30666197567_7db53f5810_m.jpg,,156090345@N04,walkingmunch,photo
51.536122,-0.12757,11,3331,45556439212,1978,b99e8d18e9,FGONGHPO-DSCN6337,walking regentscanal,2016/3/19 14:53,https://live.staticflickr.com/1978/45556439212_b99e8d18e9_m.jpg,,156090345@N04,walkingmunch,photo
51.535588,-0.1231,10,3331,45607085121,1912,ac70f38ae2,FGONGKKO-DSCN6343,walking regentscanal,2016/3/19 15:05,https://live.staticflickr.com/1912/45607085121_ac70f38ae2_m.jpg,,156090345@N04,walkingmunch,photo
51.535738,-0.126762,861,2378,31732500638,1956,c109bd7c6b,"Coal Drops Yard, Kings Cross",islington kings cross stpancras postofficetower,2018/10/28 14:24,https://live.staticflickr.com/1956/31732500638_c109bd7c6b_m.jpg,,17677513@N00,Terekhova,photo
51.536313,-0.126409,1075,2378,30653448227,1978,0f4923b1b3,Coal Drops Yard,london unitedkingdom wwwchriskenchphotography chriskenchphotography copyright britain uk greatbritain buildings nikon architecture coolpix kenchie chriskench england gb,2018/10/28 13:28,https://live.staticflickr.com/1978/30653448227_0f4923b1b3_m.jpg,,16257414@N00,Chris Kench,photo
51.535444,-0.126847,1191,2380,45569227341,1973,502b807233,Coal Drops Yard,kingscross coaldropsyard,2018/10/26 12:31,https://live.staticflickr.com/1973/45569227341_502b807233_m.jpg,,36101699310@N01,diamond geezer,photo
51.535244,-0.128112,297,2382,30623747367,1940,ce47f8a7db,800103 & 43239 Kings Cross,,2018/10/24 14:39,https://live.staticflickr.com/1940/30623747367_ce47f8a7db_m.jpg,,61847695@N08,John Livett,photo
51.536133,-0.127289,97,2387,31560762038,1950,75f303cebd,Kings Cross gas holders repurposed as luxury apartments,,2018/10/19 14:56,https://live.staticflickr.com/1950/31560762038_75f303cebd_m.jpg,,90308284@N03,river road travels,photo
51.536127,-0.127409,94,2387,31560761638,1910,59bbd110ae,,,2018/10/19 14:56,https://live.staticflickr.com/1910/31560761638_59bbd110ae_m.jpg,,90308284@N03,river road travels,photo
51.53703,-0.128625,88,2387,45435986001,1914,a3b19a9b78,Kings Cross gas holders become luxury apartments,,2018/10/19 14:51,https://live.staticflickr.com/1914/45435986001_a3b19a9b78_m.jpg,,90308284@N03,river road travels,photo
51.534869,-0.124414,68,2387,43615943690,1922,b3ab39eb59,Regent’s Canal,,2018/10/19 15:03,https://live.staticflickr.com/1922/43615943690_b3ab39eb59_m.jpg,,90308284@N03,river road travels,photo
51.534758,-0.124809,698,2395,44599049594,1902,81527a1379,"Regent's Canal, Kings Cross",puffin11uk canal,2018/10/11 14:59,https://live.staticflickr.com/1902/44599049594_81527a1379_m.jpg,,48125931@N00,puffin11uk,photo
51.534702,-0.125439,126,2464,45313105321,1956,b75b65c2b3,"Kings Cross St Pancras, London",trains square 2018 stpancras england europe summer pancrassquare regentscanal station kingscross park camden iphone boats london historic uk bridge water river canal,2018/8/3 11:51,https://live.staticflickr.com/1956/45313105321_b75b65c2b3_m.jpg,,39886685@N02,PaChambers,photo
51.542052,-0.135892,608,2395,45201408462,1936,19d8d7711b,"Agar Grove, Camden",,2018/10/11 19:41,https://live.staticflickr.com/1936/45201408462_19d8d7711b_m.jpg,,51036032@N08,Wanderer 30,photo
51.533333,-0.123056,1063,2399,44464355854,1930,5ce5ee5073,43050 d,43050,2018/10/7 14:04,https://live.staticflickr.com/1930/44464355854_5ce5ee5073_m.jpg,,50349913@N02,33106,photo
51.541574,-0.138084,591,2404,44145121325,1938,701e2bd0e4,"Metroline VMH2487 in Royal College Street, Camden on Tuesday 2 October 2018",,2018/10/2 17:31,https://live.staticflickr.com/1938/44145121325_701e2bd0e4_m.jpg,,51036032@N08,Wanderer 30,photo
51.538155,-0.122959,547,2404,31183283548,1919,6ba65588c5,"Metroline LT748 in York Way, King's Cross on Tuesday 2 October 2018",,2018/10/2 17:07,https://live.staticflickr.com/1919/31183283548_6ba65588c5_m.jpg,,51036032@N08,Wanderer 30,photo
51.534722,-0.124123,428,2404,45007746842,1912,58d347a88c,"Go Ahead London Central MHV30 in Goods Way, King's Cross on Tuesday 2 October 2018",,2018/10/2 17:01,https://live.staticflickr.com/1912/45007746842_58d347a88c_m.jpg,,51036032@N08,Wanderer 30,photo
51.535938,-0.128499,196,2414,30014447247,1948,e1e546761d,Javelin Train Near St Pancras,london train railway stpancras stpancrasbasin regentscanal bullettrain canal waterway narrowboats,2018/9/22 12:09,https://live.staticflickr.com/1948/30014447247_e1e546761d_m.jpg,,23366204@N05,eibonvale,photo
51.535938,-0.128499,148,2413,31078719508,1901,27822b3038,Local Service Over St Pancras Basin,london train railway stpancras stpancrasbasin regentscanal canal waterway narrowboats,2018/9/23 12:58,https://live.staticflickr.com/1901/31078719508_27822b3038_m.jpg,,23366204@N05,eibonvale,photo
51.535938,-0.128499,226,2414,44902780532,1958,a0f953859c,Arriving from the Continent 02,london train railway stpancras stpancrasbasin regentscanal bullettrain eurostar canal waterway narrowboats,2018/9/22 12:11,https://live.staticflickr.com/1958/44902780532_a0f953859c_m.jpg,,23366204@N05,eibonvale,photo
51.535938,-0.128499,93,2413,43138764390,1955,34b6c9a576,Departing Javelin,london train railway stpancras bullettrain,2018/9/23 13:03,https://live.staticflickr.com/1955/43138764390_34b6c9a576_m.jpg,,23366204@N05,eibonvale,photo
51.535938,-0.128499,231,2413,30014332947,1926,9231595308,Two Trains over St Pancras Basin,london train railway stpancras stpancrasbasin regentscanal bullettrain gasholderpark canal waterway narrowboats,2018/9/23 12:44,https://live.staticflickr.com/1926/30014332947_9231595308_m.jpg,,23366204@N05,eibonvale,photo
51.535938,-0.128499,871,2414,43138702460,1960,4d67156544,Arriving from the Continent 01,london train railway stpancras stpancrasbasin regentscanal bullettrain eurostar gasholderpark canal waterway narrowboats,2018/9/22 11:41,https://live.staticflickr.com/1960/43138702460_4d67156544_m.jpg,,23366204@N05,eibonvale,photo
51.535938,-0.128499,189,2413,31078592028,1979,0f20b1ae81,Arriving from the Continent 03,london train railway stpancras bullettrain eurostar,2018/9/23 12:47,https://live.staticflickr.com/1979/31078592028_0f20b1ae81_m.jpg,,23366204@N05,eibonvale,photo
51.534916,-0.125623,13,2442,44799699992,1944,501c869e3e,NB-7.jpg,coaloffice london uk city,2018/8/25 9:02,https://live.staticflickr.com/1944/44799699992_501c869e3e_m.jpg,,16706986@N08,neil.bulman,photo
51.535255,-0.125287,16,2442,43938918005,1863,5530d54497,NB-6.jpg,city london uk granarysquare,2018/8/25 9:01,https://live.staticflickr.com/1863/43938918005_5530d54497_m.jpg,,16706986@N08,neil.bulman,photo
51.535688,-0.127239,21,2442,44128467574,1952,667b48786d,NB-5.jpg,city regentscanal london uk canal,2018/8/25 8:58,https://live.staticflickr.com/1952/44128467574_667b48786d_m.jpg,,16706986@N08,neil.bulman,photo
51.536222,-0.127695,14,2442,44128432014,1868,d271c8f6df,NB-4.jpg,city regentscanal london uk canal,2018/8/25 8:57,https://live.staticflickr.com/1868/44128432014_d271c8f6df_m.jpg,,16706986@N08,neil.bulman,photo
51.53683,-0.128303,12,2442,43938800565,1853,cc61916192,NB-3.jpg,city regentscanal london uk canal,2018/8/25 8:56,https://live.staticflickr.com/1853/43938800565_cc61916192_m.jpg,,16706986@N08,neil.bulman,photo
51.536947,-0.128512,13,2442,43938773585,1910,b64269254d,NB-2.jpg,city regentscanal london uk canal,2018/8/25 8:55,https://live.staticflickr.com/1910/43938773585_b64269254d_m.jpg,,16706986@N08,neil.bulman,photo
51.537288,-0.129598,201,2442,30977028448,1929,e795a57e40,NB-1.jpg,city regentscanal london uk canal,2018/8/25 8:54,https://live.staticflickr.com/1929/30977028448_e795a57e40_m.jpg,,16706986@N08,neil.bulman,photo
51.540743,-0.128703,2876,2421,44797890882,1892,14ccc9f2a9,Go-Coach RML,rml2472 jjd472d gocoach,2018/9/15 11:39,https://live.staticflickr.com/1892/44797890882_14ccc9f2a9_m.jpg,,9003948@N05,DaveAFlett,photo
51.540062,-0.113618,4938,2594,44111183654,1922,9cafa42ca9,Old London,london england uk europe classic architecture arquitetura antique antiqueness beautiful cool detail design europestyle edification flickr historicpreservation historic nikon colorful color,2018/3/26 12:13,https://live.staticflickr.com/1922/44111183654_9cafa42ca9_m.jpg,,87167646@N08,marcelo.guerra.fotos,photo
51.534875,-0.124887,71,2485,44770741401,1849,612c513064,"Regents Canal, Kings Cross, London",england london beautiful uk europe summer capital 2018 city britain gb historic urban regents water green kingscross canal,2018/7/13 12:15,https://live.staticflickr.com/1849/44770741401_612c513064_m.jpg,,39886685@N02,PaChambers,photo
51.540202,-0.135387,120,2420,44693779842,1900,6c59cb7165,And I'm feeling good,,2018/9/16 18:56,https://live.staticflickr.com/1900/44693779842_6c59cb7165_m.jpg,,31621599@N04,Pixietoria,photo
51.54008,-0.135225,108,2420,29781058927,1867,9519dbf23c,,,2018/9/16 16:34,https://live.staticflickr.com/1867/29781058927_9519dbf23c_m.jpg,,31621599@N04,Pixietoria,photo
51.533333,-0.1235,76,2421,30840976548,1867,c0875ab84d,DSC07399,talisman railtour uk east coast main line kings cross,2018/9/15 7:24,https://live.staticflickr.com/1867/30840976548_c0875ab84d_m.jpg,,61324168@N02,Alexander Morley,photo
51.533342,-0.125334,2578,2427,43784290735,1869,eca277d5bb,"Kings Cross, London",reflection grid london kings cross bw blackandwhite sky cloud window pillars,2018/9/9 14:43,https://live.staticflickr.com/1869/43784290735_eca277d5bb_m.jpg,,129085227@N08,Velosnapper,photo
51.542725,-0.133237,903,2423,30789594088,1851,017c6268dc,"Metroline, Kings Cross, Enviro 200 DE1160 LK11CWR on Route 274 from Islington Angel to Lancaster Gate in Agar Grove, Camden on Thursday 13 September 2018",,2018/9/13 18:16,https://live.staticflickr.com/1851/30789594088_017c6268dc_m.jpg,,51036032@N08,Wanderer 30,photo
51.53375,-0.123328,19,2440,43728932515,1872,b84f77b2ed,,,2018/8/27 9:14,https://live.staticflickr.com/1872/43728932515_b84f77b2ed_m.jpg,,27017199@N07,Electra Rail,photo
51.540263,-0.135684,25,2434,43522221175,1882,9796b9c565,Along Regent’s Canal,,2018/9/2 15:42,https://live.staticflickr.com/1882/43522221175_9796b9c565_m.jpg,,98945896@N00,lnxchk,photo
51.535297,-0.126773,45,2444,43391533505,1846,035a24318d,Gasholders,2018 london england kingscross,2018/8/23 19:37,https://live.staticflickr.com/1846/43391533505_035a24318d_m.jpg,,38709963@N00,craigjam,photo
51.532882,-0.12336,128,2473,43361155125,1862,f73877d529,London Kings Cross,londonkingscross londonnortheasternrailway 43308 43208 91129 91132,2018/7/25 17:32,https://live.staticflickr.com/1862/43361155125_f73877d529_m.jpg,,106910975@N06,Oz_97,photo
51.532882,-0.12336,56,2473,30399999788,1872,c326bdfbca,London Kings Cross,londonkingscross londonnortheasternrailway 91132,2018/7/25 17:19,https://live.staticflickr.com/1872/30399999788_c326bdfbca_m.jpg,,106910975@N06,Oz_97,photo
51.532882,-0.12336,62,2473,43549390474,1850,0583a95ce4,London Kings Cross,londonkingscross londonnortheasternrailway 91132,2018/7/25 17:20,https://live.staticflickr.com/1850/43549390474_0583a95ce4_m.jpg,,106910975@N06,Oz_97,photo
51.533556,-0.123081,377,8888,43547662194,1897,6e2be8b527,01-122  With a Class 82 Mark Four DVT leading a IC225 working arrives at Kings Cross,,2001/1/1 0:00,https://live.staticflickr.com/1897/43547662194_6e2be8b527_m.jpg,,50576141@N03,Clive G',photo
51.535141,-0.119309,12,2449,29237682447,1886,76dd650603,,,2018/8/18 10:12,https://live.staticflickr.com/1886/29237682447_76dd650603_m.jpg,,123822320@N02,diddi271,photo
51.534897,-0.116753,11,2449,44174905991,1882,02547be288,,,2018/8/18 10:17,https://live.staticflickr.com/1882/44174905991_02547be288_m.jpg,,123822320@N02,diddi271,photo
51.535419,-0.122828,7,2449,42367100060,1874,475a71b969,,,2018/8/18 10:09,https://live.staticflickr.com/1874/42367100060_475a71b969_m.jpg,,123822320@N02,diddi271,photo
51.535918,-0.129196,573,4146,43452844964,1859,92620164e9,Cambridge Street,,2013/12/25 5:32,https://live.staticflickr.com/1859/43452844964_92620164e9_m.jpg,,15462727@N07,Ingy The Wingy,photo
51.536903,-0.12764,118,2448,43447106674,1844,749f29b981,IMG_1364,gasholder park gas holder london kings cross iron structure,2018/8/19 15:25,https://live.staticflickr.com/1844/43447106674_749f29b981_m.jpg,,84806883@N00,.Martin.,photo
51.536903,-0.12764,114,2448,44165006291,1831,4d426c2cc0,IMG_1359,gasholder park gas holder london kings cross iron structure,2018/8/19 15:23,https://live.staticflickr.com/1831/44165006291_4d426c2cc0_m.jpg,,84806883@N00,.Martin.,photo
51.536903,-0.12764,107,2448,44165004861,1878,82914fbbf4,IMG_1360,gasholder park gas holder london kings cross iron structure,2018/8/19 15:23,https://live.staticflickr.com/1878/44165004861_82914fbbf4_m.jpg,,84806883@N00,.Martin.,photo
51.536903,-0.12764,122,2448,44165003291,1894,d666ce17d2,IMG_1361,gasholder park gas holder london kings cross iron structure,2018/8/19 15:24,https://live.staticflickr.com/1894/44165003291_d666ce17d2_m.jpg,,84806883@N00,.Martin.,photo
51.536903,-0.12764,83,2448,44164994441,1886,90e1e0b88c,IMG_1366,gasholder park gas holder london kings cross iron structure,2018/8/19 15:26,https://live.staticflickr.com/1886/44164994441_90e1e0b88c_m.jpg,,84806883@N00,.Martin.,photo
51.536903,-0.12764,112,2448,44164992721,1840,26fc9026f5,IMG_1367,gasholder park gas holder london kings cross iron structure,2018/8/19 15:26,https://live.staticflickr.com/1840/44164992721_26fc9026f5_m.jpg,,84806883@N00,.Martin.,photo
51.536903,-0.12764,108,2448,44164989981,1890,e573969708,IMG_1369,gasholder park gas holder london kings cross iron structure,2018/8/19 15:27,https://live.staticflickr.com/1890/44164989981_e573969708_m.jpg,,84806883@N00,.Martin.,photo
51.536903,-0.12764,116,2448,44164988561,1861,5f71733071,IMG_1370,gasholder park gas holder london kings cross iron structure,2018/8/19 15:27,https://live.staticflickr.com/1861/44164988561_5f71733071_m.jpg,,84806883@N00,.Martin.,photo
51.536903,-0.12764,112,2448,44164987261,1875,681ac157fd,IMG_1371,gasholder park gas holder london kings cross iron structure,2018/8/19 15:27,https://live.staticflickr.com/1875/44164987261_681ac157fd_m.jpg,,84806883@N00,.Martin.,photo
51.536592,-0.127801,1906,2453,42298245490,1871,11fa0c7e53,'Gasholders' / II,0f20ef1c90df4fa2b9d9a19d76912b05 london camden uk england photobygeorgerex unitedkingdom britain imagesgeorgerex architecture apartments flats kingscross gasholders wilkinsoneyrearchitects maylimltd,2018/8/14 10:02,https://live.staticflickr.com/1871/42298245490_11fa0c7e53_m.jpg,,36692623@N06,Images George Rex,photo
51.533259,-0.124883,610,2456,42298717020,1883,0d75425443,upwards,london night,2018/8/11 22:28,https://live.staticflickr.com/1883/42298717020_0d75425443_m.jpg,,7359973@N08,Dissonancefalling,photo
51.53479,-0.124625,840,2456,44108243131,1892,f31774596c,greens,night kingscross london,2018/8/11 22:37,https://live.staticflickr.com/1892/44108243131_f31774596c_m.jpg,,7359973@N08,Dissonancefalling,photo
51.533736,-0.123059,631,2452,43147666825,1794,0678b46276,90039,lner ecml trains railway class90,2018/8/15 13:08,https://live.staticflickr.com/1794/43147666825_0678b46276_m.jpg,,105285627@N06,Lucas31 Transport Photography,photo
51.539405,-0.135945,9147,2455,30184149268,1792,be14e84284,KS66 XZY 01,tfl transport for london eru emergency response unit underground tube volvo fl jdc john dennis coach builders camden police btp british ks66xzy b884 imageall iain kitchen iainkitchen iaindkitchen service photos emergencyservicephotos wwwemergencyservicephotoscouk,2018/8/12 12:39,https://live.staticflickr.com/1792/30184149268_be14e84284_m.jpg,,8494603@N08,IainDK,photo
51.538908,-0.133445,43,2456,44045277571,1834,39952776ac,Canal Flats,,2018/8/11 18:20,https://live.staticflickr.com/1834/44045277571_39952776ac_m.jpg,,15145996@N00,hobbified,photo
51.536138,-0.127917,56,2456,42236215350,1813,0d59770643,St. Pancras Lock,,2018/8/11 18:01,https://live.staticflickr.com/1813/42236215350_0d59770643_m.jpg,,15145996@N00,hobbified,photo
51.537524,-0.127737,1804,2547,30165652948,1774,fd1e043be6,Framework,gasometer framework london blackandwhite mono bw abstract,2018/5/12 10:25,https://live.staticflickr.com/1774/30165652948_fd1e043be6_m.jpg,,17288983@N07,Joseph Pearson Images,photo
51.537487,-0.127973,387,2463,43112675165,941,814ff579a0,Gasholders,sallyaugust2018 gasholders kingscross london canoneosm3,2018/8/4 11:55,https://live.staticflickr.com/941/43112675165_814ff579a0_m.jpg,,10949596@N02,Sally Dunford,photo
51.533502,-0.125677,382,2463,43280313514,929,599a89d500,Pancras Square,sallyaugust2018 pancrassquare kingscross london canoneosm3,2018/8/4 11:32,https://live.staticflickr.com/929/43280313514_599a89d500_m.jpg,,10949596@N02,Sally Dunford,photo
51.535168,-0.116558,47,2548,29022047407,861,ea12f3291d,IMG-NT-5560,london unitedkingdom city,2018/5/11 4:39,https://live.staticflickr.com/861/29022047407_ea12f3291d_m.jpg,,34414772@N08,thepianistalex,photo
51.535565,-0.130548,273,2461,43889356821,1776,8874bbf6ae,Blue Monument,kingcrossstpancrasareaearlyaugust2018 kingscross stpancrasoldchurch stpancras monument bluemonument churchyard london,2018/8/6 16:14,https://live.staticflickr.com/1776/43889356821_8874bbf6ae_m.jpg,,26524054@N06,kevertonphoto,photo
51.538381,-0.132243,53,2464,43829252002,1779,6cd7985dff,UK - London - King's Cross - Scoop: A Wonderful Ice Cream World exhibition - Lick the sky - Sign,uk england london scoop exhibition icecream sign signage,2018/8/3 18:44,https://live.staticflickr.com/1779/43829252002_6cd7985dff_m.jpg,,55578087@N08,JulesFoto,photo
51.538568,-0.132694,58,2464,43877326721,1772,fda8cf4395,UK - London - King's Cross - Scoop: A Wonderful Ice Cream World exhibition - Ice-cream diagram,uk england london scoop exhibition icecream diagram,2018/8/3 18:43,https://live.staticflickr.com/1772/43877326721_fda8cf4395_m.jpg,,55578087@N08,JulesFoto,photo
51.540917,-0.137586,89,2465,42960961875,851,2f7aa75299,UK - London - Camden - Regent's Canal,uk england centrallondonoutdoorgroup clog camden regentscanal,2018/8/2 19:59,https://live.staticflickr.com/851/42960961875_2f7aa75299_m.jpg,,55578087@N08,JulesFoto,photo
51.537233,-0.128381,2969,2466,43790368261,941,589f1d051a,"Converted gasometer apartments by Regent's Canal, London",regentscanal gasometer gasholder canal heritage stpancras kingscross kingscrossregeneration castiron gas urbanregeneration canonef35mmf14lusm industrialregeneration,2018/8/1 15:44,https://live.staticflickr.com/941/43790368261_589f1d051a_m.jpg,,26524054@N06,kevertonphoto,photo
51.540603,-0.13662,2339,2466,42886353445,931,be1322e3d8,Desirable residences near The Regent's Canal in Camden,regentscanal london camden canal kingscross canon35mmf14l,2018/8/1 16:12,https://live.staticflickr.com/931/42886353445_be1322e3d8_m.jpg,,26524054@N06,kevertonphoto,photo
51.533429,-0.123338,99,2482,28831035547,848,4630788362,London Kings Cross,londonkingscross londonnortheasternrailway,2018/7/16 16:32,https://live.staticflickr.com/848/28831035547_4630788362_m.jpg,,106910975@N06,Oz_97,photo
51.533429,-0.123338,167,2482,42863043465,1779,329cfb07c3,London Kings Cross,londonkingscross 91109 londonnortheasternrailway,2018/7/16 16:33,https://live.staticflickr.com/1779/42863043465_329cfb07c3_m.jpg,,106910975@N06,Oz_97,photo
51.533429,-0.123338,161,2482,28831020457,937,437102a751,London Kings Cross,londonkingscross 91109 londonnortheasternrailway,2018/7/16 16:33,https://live.staticflickr.com/937/28831020457_437102a751_m.jpg,,106910975@N06,Oz_97,photo
51.533838,-0.126231,90,2481,29840955818,929,27d56ee7ea,2018-07-FL-193741,akt2 argent cortensteel ericparry kingscross london officebuilding rustysteel steelexoskeleton steelstructure,2018/7/17 19:59,https://live.staticflickr.com/929/29840955818_27d56ee7ea_m.jpg,,61579728@N05,acme london,photo
51.538381,-0.132243,53,2464,43829252002,1779,6cd7985dff,UK - London - King's Cross - Scoop: A Wonderful Ice Cream World exhibition - Lick the sky - Sign,uk england london scoop exhibition icecream sign signage,2018/8/3 18:44,https://live.staticflickr.com/1779/43829252002_6cd7985dff_m.jpg,,55578087@N08,JulesFoto,photo
51.538367,-0.132222,91,2464,43829236172,1780,fec571095a,UK - London - King's Cross - Scoop: A Wonderful Ice Cream World exhibition - Lick the sky - Iridescent ice-cream,uk england london scoop exhibition icecream,2018/8/3 18:44,https://live.staticflickr.com/1780/43829236172_fec571095a_m.jpg,,55578087@N08,JulesFoto,photo
51.538568,-0.132694,58,2464,43877326721,1772,fda8cf4395,UK - London - King's Cross - Scoop: A Wonderful Ice Cream World exhibition - Ice-cream diagram,uk england london scoop exhibition icecream diagram,2018/8/3 18:43,https://live.staticflickr.com/1772/43877326721_fda8cf4395_m.jpg,,55578087@N08,JulesFoto,photo
51.540917,-0.137586,89,2465,42960961875,851,2f7aa75299,UK - London - Camden - Regent's Canal,uk england centrallondonoutdoorgroup clog camden regentscanal,2018/8/2 19:59,https://live.staticflickr.com/851/42960961875_2f7aa75299_m.jpg,,55578087@N08,JulesFoto,photo
51.540529,-0.136084,73,2465,28928448627,1818,2c225ae3eb,UK - London - Camden - Regent's Canal,uk england centrallondonoutdoorgroup clog camden regentscanal,2018/8/2 20:05,https://live.staticflickr.com/1818/28928448627_2c225ae3eb_m.jpg,,55578087@N08,JulesFoto,photo
51.533447,-0.123053,214,2500,43860528871,848,d22ee3a6d2,90036 91107 Kings Cross,,2018/6/28 15:55,https://live.staticflickr.com/848/43860528871_d22ee3a6d2_m.jpg,,121196525@N07,walls.nigel,photo
51.537233,-0.128381,2969,2466,43790368261,941,589f1d051a,"Converted gasometer apartments by Regent's Canal, London",regentscanal gasometer gasholder canal heritage stpancras kingscross kingscrossregeneration castiron gas urbanregeneration canonef35mmf14lusm industrialregeneration,2018/8/1 15:44,https://live.staticflickr.com/941/43790368261_589f1d051a_m.jpg,,26524054@N06,kevertonphoto,photo
51.540603,-0.13662,2339,2466,42886353445,931,be1322e3d8,Desirable residences near The Regent's Canal in Camden,regentscanal london camden canal kingscross canon35mmf14l,2018/8/1 16:12,https://live.staticflickr.com/931/42886353445_be1322e3d8_m.jpg,,26524054@N06,kevertonphoto,photo
51.533429,-0.123338,99,2482,28831035547,848,4630788362,London Kings Cross,londonkingscross londonnortheasternrailway,2018/7/16 16:32,https://live.staticflickr.com/848/28831035547_4630788362_m.jpg,,106910975@N06,Oz_97,photo
51.533429,-0.123338,167,2482,42863043465,1779,329cfb07c3,London Kings Cross,londonkingscross 91109 londonnortheasternrailway,2018/7/16 16:33,https://live.staticflickr.com/1779/42863043465_329cfb07c3_m.jpg,,106910975@N06,Oz_97,photo
51.533429,-0.123338,161,2482,28831020457,937,437102a751,London Kings Cross,londonkingscross 91109 londonnortheasternrailway,2018/7/16 16:33,https://live.staticflickr.com/937/28831020457_437102a751_m.jpg,,106910975@N06,Oz_97,photo
51.533838,-0.126231,52,2481,29840957078,932,8c347d8e50,2018-07-FL-193740,akt2 argent cortensteel ericparry kingscross london officebuilding rustysteel steelexoskeleton steelstructure,2018/7/17 19:59,https://live.staticflickr.com/932/29840957078_8c347d8e50_m.jpg,,61579728@N05,acme london,photo
51.533838,-0.126231,90,2481,29840955818,929,27d56ee7ea,2018-07-FL-193741,akt2 argent cortensteel ericparry kingscross london officebuilding rustysteel steelexoskeleton steelstructure,2018/7/17 19:59,https://live.staticflickr.com/929/29840955818_27d56ee7ea_m.jpg,,61579728@N05,acme london,photo
51.533838,-0.126231,91,2481,29840954018,937,5888cfd8ca,2018-07-FL-193742,akt2 argent cortensteel ericparry kingscross london officebuilding rustysteel steelexoskeleton steelstructure,2018/7/17 19:59,https://live.staticflickr.com/937/29840954018_5888cfd8ca_m.jpg,,61579728@N05,acme london,photo
51.533838,-0.126231,515,2481,29840951528,861,eff453ef3c,2018-07-FL-193743,akt2 argent cortensteel ericparry kingscross london officebuilding rustysteel steelexoskeleton steelstructure,2018/7/17 19:59,https://live.staticflickr.com/861/29840951528_eff453ef3c_m.jpg,,61579728@N05,acme london,photo
51.533838,-0.126231,57,2481,42808099665,850,2771e5a9fa,2018-07-FL-193746,akt2 argent cortensteel ericparry kingscross london officebuilding rustysteel steelexoskeleton steelstructure,2018/7/17 20:00,https://live.staticflickr.com/850/42808099665_2771e5a9fa_m.jpg,,61579728@N05,acme london,photo
51.533838,-0.126231,62,2481,42808093885,941,5a32cc7d44,2018-07-FL-193748,akt2 argent cortensteel ericparry kingscross london officebuilding rustysteel steelexoskeleton steelstructure,2018/7/17 20:00,https://live.staticflickr.com/941/42808093885_5a32cc7d44_m.jpg,,61579728@N05,acme london,photo
51.53515,-0.124039,709,2483,42792121035,932,5c851ea76b,Regent’s Canal at Kings Cross,karlsbad karlschultz london uk,2018/7/15 22:11,https://live.staticflickr.com/932/42792121035_5c851ea76b_m.jpg,,13875847@N00,karlsbad,photo
51.5349,-0.123689,1464,2483,28805599287,861,82aafec5ab,Kings Place and Regent’s Canal,karlsbad karlschultz london uk,2018/7/15 20:57,https://live.staticflickr.com/861/28805599287_82aafec5ab_m.jpg,,13875847@N00,karlsbad,photo
51.535091,-0.124575,351,2483,28805540907,939,6b62703c16,The Lighterman and Regent’s Canal,karlsbad karlschultz london uk,2018/7/15 22:05,https://live.staticflickr.com/939/28805540907_6b62703c16_m.jpg,,13875847@N00,karlsbad,photo
51.534497,-0.124784,149,2483,29824897238,859,9ca36856a8,Goods Way,karlsbad karlschultz london uk,2018/7/15 22:07,https://live.staticflickr.com/859/29824897238_9ca36856a8_m.jpg,,13875847@N00,karlsbad,photo
51.533383,-0.126192,47,2471,43646534292,848,611d8d9c10,King's Cross,,2018/7/27 20:43,https://live.staticflickr.com/848/43646534292_611d8d9c10_m.jpg,,155353400@N03,fstanis,photo
51.536891,-0.128231,895,2717,41849431230,847,ded80f4f39,Gasholder 8,gasholder gasometer guideframe kingscross camden london england uk unitedkingdom greatbritain,2017/11/23 13:33,https://live.staticflickr.com/847/41849431230_ded80f4f39_m.jpg,,28121598@N03,R~P~M,photo
51.53469,-0.118328,11,2488,28686446307,1785,b3a30d2d32,Red Arrows,,2018/7/10 13:09,https://live.staticflickr.com/1785/28686446307_b3a30d2d32_m.jpg,,29632983@N00,Rob Brennan,photo
51.535247,-0.126792,25,2766,43529516081,853,656b865755,vsco59da301d9ec79,,2017/10/5 15:09,https://live.staticflickr.com/853/43529516081_656b865755_m.jpg,,156194048@N06,kristenpost,photo
51.54158,-0.125053,41,2484,43455856971,841,21e30e53f4,2018-07-FL-193252,caledonianroad yorkway,2018/7/14 20:04,https://live.staticflickr.com/841/43455856971_21e30e53f4_m.jpg,,61579728@N05,acme london,photo
51.54158,-0.125053,23,2484,42551336875,1761,90268e225e,2018-07-FL-193254,caledonianroad yorkway,2018/7/14 20:05,https://live.staticflickr.com/1761/42551336875_90268e225e_m.jpg,,61579728@N05,acme london,photo
51.54158,-0.125053,31,2484,28569177237,846,cf0427d61b,2018-07-FL-193255,caledonianroad yorkway,2018/7/14 20:05,https://live.staticflickr.com/846/28569177237_cf0427d61b_m.jpg,,61579728@N05,acme london,photo
51.541766,-0.1246,38,2484,28569173307,1827,91049c60b9,2018-07-FL-193258,caledonianroad yorkway,2018/7/14 20:05,https://live.staticflickr.com/1827/28569173307_91049c60b9_m.jpg,,61579728@N05,acme london,photo
51.541766,-0.1246,38,2484,42551332485,1782,ddf312f41c,2018-07-FL-193259,caledonianroad yorkway,2018/7/14 20:05,https://live.staticflickr.com/1782/42551332485_ddf312f41c_m.jpg,,61579728@N05,acme london,photo
51.541819,-0.124781,42,2484,28569170427,844,dbfac631c5,2018-07-FL-193260,caledonianroad yorkway,2018/7/14 20:06,https://live.staticflickr.com/844/28569170427_dbfac631c5_m.jpg,,61579728@N05,acme london,photo
51.541819,-0.124781,42,2484,42551330605,844,7d93f7b3a3,2018-07-FL-193261,caledonianroad yorkway,2018/7/14 20:06,https://live.staticflickr.com/844/42551330605_7d93f7b3a3_m.jpg,,61579728@N05,acme london,photo
51.542113,-0.123823,30,2484,29585220398,1807,e1094f0570,2018-07-FL-193263,caledonianroad yorkway,2018/7/14 20:06,https://live.staticflickr.com/1807/29585220398_e1094f0570_m.jpg,,61579728@N05,acme london,photo
51.54228,-0.123059,26,2484,28569156297,1764,13505af383,2018-07-FL-193267,caledonianroad yorkway,2018/7/14 20:07,https://live.staticflickr.com/1764/28569156297_13505af383_m.jpg,,61579728@N05,acme london,photo
51.54228,-0.123059,41,2484,28569153017,918,3974712dfb,2018-07-FL-193269,caledonianroad yorkway,2018/7/14 20:07,https://live.staticflickr.com/918/28569153017_3974712dfb_m.jpg,,61579728@N05,acme london,photo
51.542605,-0.123228,41,2484,42551320955,1809,5a579ccb0a,2018-07-FL-193271,caledonianroad yorkway,2018/7/14 20:07,https://live.staticflickr.com/1809/42551320955_5a579ccb0a_m.jpg,,61579728@N05,acme london,photo
51.542605,-0.123228,39,2484,43407825542,1824,1cc38aa40d,2018-07-FL-193272,caledonianroad yorkway,2018/7/14 20:08,https://live.staticflickr.com/1824/43407825542_1cc38aa40d_m.jpg,,61579728@N05,acme london,photo
51.542605,-0.123228,35,2484,28569147047,1767,4aae88ff40,2018-07-FL-193273,caledonianroad yorkway,2018/7/14 20:08,https://live.staticflickr.com/1767/28569147047_4aae88ff40_m.jpg,,61579728@N05,acme london,photo
51.542927,-0.123623,36,2484,43407822792,1785,3970c017c0,2018-07-FL-193275,caledonianroad yorkway,2018/7/14 20:08,https://live.staticflickr.com/1785/43407822792_3970c017c0_m.jpg,,61579728@N05,acme london,photo
51.542758,-0.124242,39,2484,29585198968,1782,61c9404b4e,2018-07-FL-193277,caledonianroad yorkway,2018/7/14 20:08,https://live.staticflickr.com/1782/29585198968_61c9404b4e_m.jpg,,61579728@N05,acme london,photo
51.542677,-0.125256,50,2484,43455817691,1804,7bae4f3cbd,2018-07-FL-193280,caledonianroad yorkway,2018/7/14 20:09,https://live.staticflickr.com/1804/43455817691_7bae4f3cbd_m.jpg,,61579728@N05,acme london,photo
51.542569,-0.125306,51,2484,28569135347,1808,693f97ba4a,2018-07-FL-193281,caledonianroad yorkway,2018/7/14 20:10,https://live.staticflickr.com/1808/28569135347_693f97ba4a_m.jpg,,61579728@N05,acme london,photo
51.542569,-0.125306,48,2484,43455812891,1824,fa0b3866cf,2018-07-FL-193282,caledonianroad yorkway,2018/7/14 20:10,https://live.staticflickr.com/1824/43455812891_fa0b3866cf_m.jpg,,61579728@N05,acme london,photo
51.542569,-0.125306,48,2484,29585194428,1803,aa659572cf,2018-07-FL-193283,caledonianroad yorkway,2018/7/14 20:10,https://live.staticflickr.com/1803/29585194428_aa659572cf_m.jpg,,61579728@N05,acme london,photo
51.541611,-0.125975,41,2484,28569125297,1767,8bcc3297e3,2018-07-FL-193286,caledonianroad yorkway,2018/7/14 20:12,https://live.staticflickr.com/1767/28569125297_8bcc3297e3_m.jpg,,61579728@N05,acme london,photo
51.543022,-0.125917,48,2484,43455802531,925,81f812e6dd,2018-07-FL-193287,caledonianroad yorkway,2018/7/14 20:16,https://live.staticflickr.com/925/43455802531_81f812e6dd_m.jpg,,61579728@N05,acme london,photo
51.543022,-0.12592,64,2484,43455800991,1764,1564622c02,2018-07-FL-193288,caledonianroad yorkway,2018/7/14 20:16,https://live.staticflickr.com/1764/43455800991_1564622c02_m.jpg,,61579728@N05,acme london,photo
51.543022,-0.12592,44,2484,43455799601,914,64d800d92f,2018-07-FL-193289,caledonianroad yorkway,2018/7/14 20:16,https://live.staticflickr.com/914/43455799601_64d800d92f_m.jpg,,61579728@N05,acme london,photo
51.543036,-0.125631,51,2484,43455798431,835,9de257a55d,2018-07-FL-193290,caledonianroad yorkway,2018/7/14 20:17,https://live.staticflickr.com/835/43455798431_9de257a55d_m.jpg,,61579728@N05,acme london,photo
51.543036,-0.125631,56,2484,43455796881,1807,a0230e2c3e,2018-07-FL-193291,caledonianroad yorkway,2018/7/14 20:17,https://live.staticflickr.com/1807/43455796881_a0230e2c3e_m.jpg,,61579728@N05,acme london,photo
51.54385,-0.123364,30,2484,43455795081,1830,2faba78445,2018-07-FL-193292,caledonianroad yorkway,2018/7/14 20:18,https://live.staticflickr.com/1830/43455795081_2faba78445_m.jpg,,61579728@N05,acme london,photo
51.543577,-0.12265,130,2484,43455792421,1802,9528e64804,2018-07-FL-193294,caledonianroad yorkway,2018/7/14 20:19,https://live.staticflickr.com/1802/43455792421_9528e64804_m.jpg,,61579728@N05,acme london,photo
51.543677,-0.122445,47,2484,43455791121,841,315b281efa,2018-07-FL-193295,caledonianroad yorkway,2018/7/14 20:20,https://live.staticflickr.com/841/43455791121_315b281efa_m.jpg,,61579728@N05,acme london,photo
51.543647,-0.122334,39,2484,43407793722,833,e2b0f19d23,2018-07-FL-193296,caledonianroad yorkway,2018/7/14 20:20,https://live.staticflickr.com/833/43407793722_e2b0f19d23_m.jpg,,61579728@N05,acme london,photo
51.543647,-0.122334,62,2484,28569103137,1804,8794fac6d1,2018-07-FL-193297,caledonianroad yorkway,2018/7/14 20:20,https://live.staticflickr.com/1804/28569103137_8794fac6d1_m.jpg,,61579728@N05,acme london,photo
51.543622,-0.122445,517,2484,28569101657,1766,56526f043d,2018-07-FL-193298,caledonianroad yorkway,2018/7/14 20:21,https://live.staticflickr.com/1766/28569101657_56526f043d_m.jpg,,61579728@N05,acme london,photo
51.543622,-0.122445,44,2484,29585174348,1765,34d87de2dc,2018-07-FL-193299,caledonianroad yorkway,2018/7/14 20:21,https://live.staticflickr.com/1765/29585174348_34d87de2dc_m.jpg,,61579728@N05,acme london,photo
51.543622,-0.122445,47,2484,43455782641,1804,3f66112329,2018-07-FL-193300,caledonianroad yorkway,2018/7/14 20:21,https://live.staticflickr.com/1804/43455782641_3f66112329_m.jpg,,61579728@N05,acme london,photo
51.543622,-0.122445,52,2484,43455780861,1808,6880e46a7a,2018-07-FL-193301,caledonianroad yorkway,2018/7/14 20:21,https://live.staticflickr.com/1808/43455780861_6880e46a7a_m.jpg,,61579728@N05,acme london,photo
51.543205,-0.123009,29,2484,43455777711,1768,165109bd6a,2018-07-FL-193303,caledonianroad yorkway,2018/7/14 20:22,https://live.staticflickr.com/1768/43455777711_165109bd6a_m.jpg,,61579728@N05,acme london,photo
51.543238,-0.122825,44,2484,43455775961,1764,9492bf7133,2018-07-FL-193304,caledonianroad yorkway,2018/7/14 20:22,https://live.staticflickr.com/1764/43455775961_9492bf7133_m.jpg,,61579728@N05,acme london,photo
51.543947,-0.122831,43,2484,43455773511,846,b21763dcdf,2018-07-FL-193306,caledonianroad yorkway,2018/7/14 20:23,https://live.staticflickr.com/846/43455773511_b21763dcdf_m.jpg,,61579728@N05,acme london,photo
51.544486,-0.121287,51,2484,43455770371,840,c24e5a95fd,2018-07-FL-193308,caledonianroad yorkway,2018/7/14 20:24,https://live.staticflickr.com/840/43455770371_c24e5a95fd_m.jpg,,61579728@N05,acme london,photo
51.544486,-0.121287,48,2484,43455767111,1789,b7304395f0,2018-07-FL-193310,caledonianroad yorkway,2018/7/14 20:24,https://live.staticflickr.com/1789/43455767111_b7304395f0_m.jpg,,61579728@N05,acme london,photo
51.543633,-0.125787,50,2484,43455762281,1824,a0c3446f38,2018-07-FL-193312,caledonianroad yorkway,2018/7/14 20:34,https://live.staticflickr.com/1824/43455762281_a0c3446f38_m.jpg,,61579728@N05,acme london,photo
51.543505,-0.12575,50,2484,43455760631,1782,fec6917414,2018-07-FL-193313,caledonianroad yorkway,2018/7/14 20:35,https://live.staticflickr.com/1782/43455760631_fec6917414_m.jpg,,61579728@N05,acme london,photo
51.544297,-0.123939,48,2484,29585143348,1767,fd544337f3,2018-07-FL-193315,caledonianroad yorkway,2018/7/14 20:36,https://live.staticflickr.com/1767/29585143348_fd544337f3_m.jpg,,61579728@N05,acme london,photo
51.544402,-0.123875,33,2484,29585141928,1765,3facd8a7bb,2018-07-FL-193316,caledonianroad yorkway,2018/7/14 20:36,https://live.staticflickr.com/1765/29585141928_3facd8a7bb_m.jpg,,61579728@N05,acme london,photo
51.544888,-0.121762,89,2484,29585140848,838,b9fe8cde4e,2018-07-FL-193317,caledonianroad yorkway,2018/7/14 20:37,https://live.staticflickr.com/838/29585140848_b9fe8cde4e_m.jpg,,61579728@N05,acme london,photo
51.544902,-0.121714,54,2484,29585139998,1790,0bc2bafe5a,2018-07-FL-193318,caledonianroad yorkway,2018/7/14 20:38,https://live.staticflickr.com/1790/29585139998_0bc2bafe5a_m.jpg,,61579728@N05,acme london,photo
51.545241,-0.121209,57,2484,29585138868,835,e579f378f2,2018-07-FL-193319,caledonianroad yorkway,2018/7/14 20:38,https://live.staticflickr.com/835/29585138868_e579f378f2_m.jpg,,61579728@N05,acme london,photo
51.545269,-0.120759,58,2484,29585137948,1785,53c39ce4a5,2018-07-FL-193320,caledonianroad yorkway,2018/7/14 20:38,https://live.staticflickr.com/1785/29585137948_53c39ce4a5_m.jpg,,61579728@N05,acme london,photo
51.545477,-0.119814,51,2484,42739791214,918,f560b11af2,2018-07-FL-193321,caledonianroad yorkway,2018/7/14 20:39,https://live.staticflickr.com/918/42739791214_f560b11af2_m.jpg,,61579728@N05,acme london,photo
51.545494,-0.119264,58,2484,29585135248,915,134b974808,2018-07-FL-193323,caledonianroad yorkway,2018/7/14 20:39,https://live.staticflickr.com/915/29585135248_134b974808_m.jpg,,61579728@N05,acme london,photo
51.545227,-0.121214,54,2484,42739786674,838,84e6efbd60,2018-07-FL-193324,caledonianroad yorkway,2018/7/14 20:40,https://live.staticflickr.com/838/42739786674_84e6efbd60_m.jpg,,61579728@N05,acme london,photo
51.545166,-0.121239,56,2484,29585133058,1761,1c7ed3b7db,2018-07-FL-193325,caledonianroad yorkway,2018/7/14 20:41,https://live.staticflickr.com/1761/29585133058_1c7ed3b7db_m.jpg,,61579728@N05,acme london,photo
51.538097,-0.12312,48,2484,43388846902,1762,14efb67ae9,2018-07-FL-193249,2018 argent cladding curtainwalling dugganmorris kingscross london office pink,2018/7/14 20:01,https://live.staticflickr.com/1762/43388846902_14efb67ae9_m.jpg,,61579728@N05,acme london,photo
51.533215,-0.123467,11250,18142,43293282832,836,86d67774cf,Deltic Delight (75/28/18),55020 55001 55017 kingscross 01091975,1975/9/1 0:00,https://live.staticflickr.com/836/43293282832_86d67774cf_m.jpg,,41701047@N08,geoff7918,photo
51.533658,-0.123113,386,2488,29468314408,834,7492c353c7,91132,trains railway class91,2018/7/10 17:30,https://live.staticflickr.com/834/29468314408_7492c353c7_m.jpg,,105285627@N06,Lucas31 Transport Photography,photo
51.533377,-0.125081,1363,2488,43276775272,1829,c8f12a0699,"Red Arrow Trails, RAF Centenary Flypast, London, England",london summer planes raf royalairforce england historic uk military,2018/7/10 12:08,https://live.staticflickr.com/1829/43276775272_c8f12a0699_m.jpg,,39886685@N02,PaChambers,photo
51.533466,-0.126253,387,2488,42608615554,1805,13521680a3,"RAF Centenary Flypast, London, England",london summer planes raf royalairforce england historic uk military,2018/7/10 12:02,https://live.staticflickr.com/1805/42608615554_13521680a3_m.jpg,,39886685@N02,PaChambers,photo
51.533466,-0.126253,137,2488,43276773902,1821,e05dc05b31,"RAF Centenary Flypast, London, England",london summer planes raf royalairforce england historic uk military,2018/7/10 12:03,https://live.staticflickr.com/1821/43276773902_e05dc05b31_m.jpg,,39886685@N02,PaChambers,photo
51.533466,-0.126253,135,2488,42608613494,1809,e83db660bf,"RAF Centenary Flypast, London, England",london summer planes raf royalairforce england historic uk military,2018/7/10 12:02,https://live.staticflickr.com/1809/42608613494_e83db660bf_m.jpg,,39886685@N02,PaChambers,photo
51.533466,-0.126253,122,2488,43326506011,1822,2178f30fdc,"RAF Centenary Flypast, London, England",london summer planes raf royalairforce england historic uk military,2018/7/10 11:59,https://live.staticflickr.com/1822/43326506011_2178f30fdc_m.jpg,,39886685@N02,PaChambers,photo
51.535849,-0.127737,452,2496,41469071590,1821,6491e126e3,St Pancras Lock,stpancraslock regentscanal london cityscape editing lightroom photography nikond3100,2018/7/2 19:07,https://live.staticflickr.com/1821/41469071590_6491e126e3_m.jpg,,93875106@N04,Ellacott Photography,photo
51.543688,-0.114587,611,2493,42501678614,1822,61d90ffbb6,Freightliner 66548 on the 1232 432L from Crewe Basford Hall to Felixstowe South FLT at Caledonian Road & Barnsbury on Thursday 5 July 2018,,2018/7/5 19:21,https://live.staticflickr.com/1822/42501678614_61d90ffbb6_m.jpg,,51036032@N08,Wanderer 30,photo
51.534947,-0.125081,65,2498,29264638918,1783,33364d5e8d,2018-06-FL-192476,cana canal cinema everyman everymancinema kingscross london outdoorcinema picturehouse river,2018/6/30 10:32,https://live.staticflickr.com/1783/29264638918_33364d5e8d_m.jpg,,61579728@N05,acme london,photo
51.534947,-0.125081,57,2498,41325200250,1789,9ebd7cffff,2018-06-FL-192477,cana canal cinema everyman everymancinema kingscross london outdoorcinema picturehouse river,2018/6/30 10:32,https://live.staticflickr.com/1789/41325200250_9ebd7cffff_m.jpg,,61579728@N05,acme london,photo
51.534947,-0.125081,75,2498,41325196880,847,c6650586fc,2018-06-FL-192478,cana canal cinema everyman everymancinema kingscross london outdoorcinema picturehouse river,2018/6/30 10:32,https://live.staticflickr.com/847/41325196880_c6650586fc_m.jpg,,61579728@N05,acme london,photo
51.536452,-0.13427,34,2498,28266749397,1768,07c92bea67,2018-06-FL-192480,cana canal kingscross london river,2018/6/30 10:35,https://live.staticflickr.com/1768/28266749397_07c92bea67_m.jpg,,61579728@N05,acme london,photo
51.535472,-0.128012,38,2498,41325182380,1781,7e96a6fb75,2018-06-FL-192483,cana canal kingscross london river,2018/6/30 10:35,https://live.staticflickr.com/1781/41325182380_7e96a6fb75_m.jpg,,61579728@N05,acme london,photo
51.53618,-0.127603,36,2498,42232178335,839,a2056a3451,2018-06-FL-192484,cana canal kingscross london river,2018/6/30 10:37,https://live.staticflickr.com/839/42232178335_a2056a3451_m.jpg,,61579728@N05,acme london,photo
51.534377,-0.127716,87,2502,28220472387,917,9f5f5c7ac2,"London: Southeastern Class 395, London St Pancras (Camden)",stpancrasstation london brclass395 southeastern,2018/6/26 9:28,https://live.staticflickr.com/917/28220472387_9f5f5c7ac2_m.jpg,,13706945@N00,michaelday_bath,photo
51.534722,-0.1125,427,2503,43087292891,841,a9a55d56a9,London 10.30pm,,2018/6/25 22:32,https://live.staticflickr.com/841/43087292891_a9a55d56a9_m.jpg,,97699932@N00,r0sejam,photo
51.533649,-0.116593,2906,2506,42367833804,927,7b323f4842,Kendal House,bertholdlubetkin carlzeissdistagont35mmf28mm london londonboroughofislington londonn1 n1 skinnerbaileyandlubetkin sonya7ii tecton,2018/6/22 15:46,https://live.staticflickr.com/927/42367833804_7b323f4842_m.jpg,,74891768@N00,cybertect,photo
51.533266,-0.123462,408,2501,42137676265,837,7b7c36ca85,Virgin HST At King's Cross,2018 kingscross vtec virgin,2018/6/27 11:21,https://live.staticflickr.com/837/42137676265_7b7c36ca85_m.jpg,,39731978@N04,David S Wilson,photo
51.533333,-0.123056,411,2504,29123642258,1806,61ba17db5e,First day of LNER service.  Kings Cross. 24th June 2018,91110 battleofbritainmemorialflight thameslink 1s151130londonkingscrosstoedinburgh 700126 24thjune2018 lner 1p261111londonkingscrosstopeterborough,2018/6/24 11:09,https://live.staticflickr.com/1806/29123642258_61ba17db5e_m.jpg,,41070148@N05,Ajax46.,photo
51.533888,-0.122223,198,2504,42277288464,1776,d3907c9b1c,LNER 91110 "Battle of Britain Memorial Flight" 1S15 1130 London Kings Cross - Edinburgh. 24th June 2018,kingscross 91110 battleofbritainmemorialflight 1s151130londonkingscrosstoedinburgh 24thjune2018 lner,2018/6/24 11:17,https://live.staticflickr.com/1776/42277288464_d3907c9b1c_m.jpg,,41070148@N05,Ajax46.,photo
51.533888,-0.1225,270,2504,42094058155,1766,7e611c59a7,LNER 91110 "Battle of Britain Memorial Flight" 1S15 1130 London Kings Cross - Edinburgh. 24th June 2018,kingscross 91110 battleofbritainmemorialflight 1s151130londonkingscrosstoedinburgh 24thjune2018 lner,2018/6/24 11:18,https://live.staticflickr.com/1766/42094058155_7e611c59a7_m.jpg,,41070148@N05,Ajax46.,photo
51.533055,-0.123056,248,2504,42946032342,1763,c5f624d750,LNER 91110 "Battle of Britain Memorial Flight" 1S15 1130 London Kings Cross - Edinburgh. 24th June 2018,kingscross 91110 battleofbritainmemorialflight 1s151130londonkingscrosstoedinburgh 24thjune2018 lner,2018/6/24 11:18,https://live.staticflickr.com/1763/42946032342_c5f624d750_m.jpg,,41070148@N05,Ajax46.,photo
51.533611,-0.122778,308,2505,42923746882,1807,b1a5c97421,Virgin East Coast 43319 / 90036.  Kings Cross. 23rd June 2018,43319 kingscross virgineastcoast 1d211603londonkingscrosstoleeds 43302leading 23rdjune2018 1a291215leedstolondonkingscross 90036 driverjackmills,2018/6/23 14:39,https://live.staticflickr.com/1807/42923746882_b1a5c97421_m.jpg,,41070148@N05,Ajax46.,photo
51.533333,-0.122223,144,2505,41162978310,1765,97d277d0b5,Virgin East Coast 82224 (with 91120) 1E10 1000 Edinburgh - Kings Cross. 23rd June 2018,kingscross virgineastcoast 23rdjune2018 82224 1e101000edinburghtolondonkingscross 91120trailing,2018/6/23 14:40,https://live.staticflickr.com/1765/41162978310_97d277d0b5_m.jpg,,41070148@N05,Ajax46.,photo
51.534166,-0.123612,137,2505,42071583815,1772,f9ebcde4a3,Virgin East Coast 91120 1E10 1000 Edinburgh - Kings Cross,kingscross 91120 virgineastcoast 23rdjune2018 1e101000edinburghtolondonkingscross,2018/6/23 14:41,https://live.staticflickr.com/1772/42071583815_f9ebcde4a3_m.jpg,,41070148@N05,Ajax46.,photo
51.533888,-0.123334,313,2505,42071580495,1830,9c78a09d2e,Last day of Virgin Trains East Coast and all three current traction classes are in view here.  Kings Cross 23rd June 2018,43319 kingscross 91114 virgineastcoast 1y841203yorktolondonkingscross 1d211603londonkingscrosstoleeds 23rdjune2018 1a291215leedstolondonkingscross 90036,2018/6/23 14:41,https://live.staticflickr.com/1830/42071580495_9c78a09d2e_m.jpg,,41070148@N05,Ajax46.,photo
51.533888,-0.123334,194,2505,28104402667,1804,40c17157d5,Virgin East Coast 90036 "Driver Jack Mills" 1D21 1603 Kings Cross - Leeds .  23rd June 2018,kingscross virgineastcoast 1d211603londonkingscrosstoleeds 23rdjune2018 90036 driverjackmills,2018/6/23 14:42,https://live.staticflickr.com/1804/28104402667_40c17157d5_m.jpg,,41070148@N05,Ajax46.,photo
51.53487,-0.114852,580,2505,28101065027,1820,3e294677fa,Towpath Link,jubilee greenway section 3 three walk saturday 23rd june 2018 sunny warm blue skies camdenlocktovictoriapark regents canal amble stroll walking exploring london city urban islington tunnel towpath link walkway route diversion black white monochrome mono,2018/6/23 11:03,https://live.staticflickr.com/1820/28101065027_3e294677fa_m.jpg,,9302732@N08,zawtowers,photo
